Tick,Flight_State,Stabilization_Flag,Altitude, Temperature,Pressure,Base_Pressure,Velocity,Max_Rocket_Velocity,Max_Payload_Velocity,Yaw,Pitch,Roll,Abs_Accel,AccelX,AccelY,AccelZ,GyroX,GyroY,GyroZ,Thrust, Servo1,Servo2,Servo3,Servo4,Flight_time
164,0,0,0,0,0,12738.31934,0,0,0,0,0,0,0,0,0,0,0,0,0,0,0,0,0,0,164
164,0,0,0,0,0,16377.90918,0,0,0,0,0,0,0,0,0,0,0,0,0,0,0,0,0,0,164
164,0,0,0,0,0,20017.31836,0,0,0,0,0,0,0,0,0,0,0,0,0,0,0,0,0,0,164
164,0,0,0,0,0,23656.9375,0,0,0,0,0,0,0,0,0,0,0,0,0,0,0,0,0,0,164
164,0,0,0,0,0,27296.63672,0,0,0,0,0,0,0,0,0,0,0,0,0,0,0,0,0,0,164
164,0,0,0,0,0,30936.41016,0,0,0,0,0,0,0,0,0,0,0,0,0,0,0,0,0,0,164
164,0,0,0,0,0,34576.13281,0,0,0,0,0,0,0,0,0,0,0,0,0,0,0,0,0,0,164
164,0,0,0,0,0,38216.47266,0,0,0,0,0,0,0,0,0,0,0,0,0,0,0,0,0,0,164
164,0,0,0,0,0,41856.44531,0,0,0,0,0,0,0,0,0,0,0,0,0,0,0,0,0,0,164
164,0,0,0,0,0,44586.38672,0,0,0,0,0,0,0,0,0,0,0,0,0,0,0,0,0,0,164
164,0,0,0,0,0,48226.46875,0,0,0,0,0,0,0,0,0,0,0,0,0,0,0,0,0,0,164
164,0,0,0,0,0,51866.59766,0,0,0,0,0,0,0,0,0,0,0,0,0,0,0,0,0,0,164
164,0,0,0,0,0,55506.65625,0,0,0,0,0,0,0,0,0,0,0,0,0,0,0,0,0,0,164
164,0,0,0,0,0,59146.66016,0,0,0,0,0,0,0,0,0,0,0,0,0,0,0,0,0,0,164
164,0,0,0,0,0,62786.52734,0,0,0,0,0,0,0,0,0,0,0,0,0,0,0,0,0,0,164
164,0,0,0,0,0,66426.51563,0,0,0,0,0,0,0,0,0,0,0,0,0,0,0,0,0,0,164
164,0,0,0,0,0,70066.61719,0,0,0,0,0,0,0,0,0,0,0,0,0,0,0,0,0,0,164
164,0,0,0,0,0,72796.77344,0,0,0,0,0,0,0,0,0,0,0,0,0,0,0,0,0,0,164
164,0,0,0,0,0,77347.34375,0,0,0,0,0,0,0,0,0,0,0,0,0,0,0,0,0,0,164
164,0,0,0,0,0,80987.39063,0,0,0,0,0,0,0,0,0,0,0,0,0,0,0,0,0,0,164
164,0,0,0,0,0,84627.30469,0,0,0,0,0,0,0,0,0,0,0,0,0,0,0,0,0,0,164
164,0,0,0,0,0,88267.36719,0,0,0,0,0,0,0,0,0,0,0,0,0,0,0,0,0,0,164
164,0,0,0,0,0,91907.59375,0,0,0,0,0,0,0,0,0,0,0,0,0,0,0,0,0,0,164
164,0,0,0,0,0,95547.16406,0,0,0,0,0,0,0,0,0,0,0,0,0,0,0,0,0,0,164
164,0,0,0,0,0,99187.375,0,0,0,0,0,0,0,0,0,0,0,0,0,0,0,0,0,0,164
164,0,0,0,0,0,102827.625,0,0,0,0,0,0,0,0,0,0,0,0,0,0,0,0,0,0,164
164,0,0,0,0,0,106468.0313,0,0,0,0,0,0,0,0,0,0,0,0,0,0,0,0,0,0,164
164,0,0,0,0,0,110108.1875,0,0,0,0,0,0,0,0,0,0,0,0,0,0,0,0,0,0,164
164,0,0,0,0,0,113748.1172,0,0,0,0,0,0,0,0,0,0,0,0,0,0,0,0,0,0,164
164,0,0,0,0,0,117388.3047,0,0,0,0,0,0,0,0,0,0,0,0,0,0,0,0,0,0,164
164,0,0,0,0,0,121028.6953,0,0,0,0,0,0,0,0,0,0,0,0,0,0,0,0,0,0,164
164,0,0,0,0,0,124668.9375,0,0,0,0,0,0,0,0,0,0,0,0,0,0,0,0,0,0,164
164,0,0,0,0,0,128309.0156,0,0,0,0,0,0,0,0,0,0,0,0,0,0,0,0,0,0,164
164,0,0,0,0,0,131949.0469,0,0,0,0,0,0,0,0,0,0,0,0,0,0,0,0,0,0,164
164,0,0,0,0,0,134679.1875,0,0,0,0,0,0,0,0,0,0,0,0,0,0,0,0,0,0,164
164,0,0,0,0,0,138319.2344,0,0,0,0,0,0,0,0,0,0,0,0,0,0,0,0,0,0,164
164,0,0,0,0,0,141959.2813,0,0,0,0,0,0,0,0,0,0,0,0,0,0,0,0,0,0,164
164,0,0,0,0,0,145599.2656,0,0,0,0,0,0,0,0,0,0,0,0,0,0,0,0,0,0,164
164,0,0,0,0,0,149239.3438,0,0,0,0,0,0,0,0,0,0,0,0,0,0,0,0,0,0,164
164,0,0,0,0,0,152879.6875,0,0,0,0,0,0,0,0,0,0,0,0,0,0,0,0,0,0,164
164,0,0,0,0,0,156520.0156,0,0,0,0,0,0,0,0,0,0,0,0,0,0,0,0,0,0,164
164,0,0,0,0,0,160160.0469,0,0,0,0,0,0,0,0,0,0,0,0,0,0,0,0,0,0,164
164,0,0,0,0,0,163800.2188,0,0,0,0,0,0,0,0,0,0,0,0,0,0,0,0,0,0,164
164,0,0,0,0,0,167440.0938,0,0,0,0,0,0,0,0,0,0,0,0,0,0,0,0,0,0,164
164,0,0,0,0,0,171080,0,0,0,0,0,0,0,0,0,0,0,0,0,0,0,0,0,0,164
168,0,0,0,0,0,9094.990234,0,0,0,0,0,0,0,0,0,0,0,0,0,0,0,0,0,0,168
168,0,0,0,0,0,12733.74023,0,0,0,0,0,0,0,0,0,0,0,0,0,0,0,0,0,0,168
168,0,0,0,0,0,16372.4707,0,0,0,0,0,0,0,0,0,0,0,0,0,0,0,0,0,0,168
168,0,0,0,0,0,20010.74023,0,0,0,0,0,0,0,0,0,0,0,0,0,0,0,0,0,0,168
168,0,0,0,0,0,23649.31055,0,0,0,0,0,0,0,0,0,0,0,0,0,0,0,0,0,0,168
168,0,0,0,0,0,26377.88281,0,0,0,0,0,0,0,0,0,0,0,0,0,0,0,0,0,0,168
168,0,0,0,0,0,30016.44141,0,0,0,0,0,0,0,0,0,0,0,0,0,0,0,0,0,0,168
168,0,0,0,0,0,33655.04297,0,0,0,0,0,0,0,0,0,0,0,0,0,0,0,0,0,0,168
168,0,0,0,0,0,36383.84375,0,0,0,0,0,0,0,0,0,0,0,0,0,0,0,0,0,0,168
168,0,0,0,0,0,40022.64453,0,0,0,0,0,0,0,0,0,0,0,0,0,0,0,0,0,0,168
168,0,0,0,0,0,43661.29688,0,0,0,0,0,0,0,0,0,0,0,0,0,0,0,0,0,0,168
168,0,0,0,0,0,47299.58203,0,0,0,0,0,0,0,0,0,0,0,0,0,0,0,0,0,0,168
168,0,0,0,0,0,50938.41016,0,0,0,0,0,0,0,0,0,0,0,0,0,0,0,0,0,0,168
168,0,0,0,0,0,54577.14063,0,0,0,0,0,0,0,0,0,0,0,0,0,0,0,0,0,0,168
168,0,0,0,0,0,57306.26172,0,0,0,0,0,0,0,0,0,0,0,0,0,0,0,0,0,0,168
168,0,0,0,0,0,60945.10156,0,0,0,0,0,0,0,0,0,0,0,0,0,0,0,0,0,0,168
168,0,0,0,0,0,64583.76953,0,0,0,0,0,0,0,0,0,0,0,0,0,0,0,0,0,0,168
168,0,0,0,0,0,68222.5625,0,0,0,0,0,0,0,0,0,0,0,0,0,0,0,0,0,0,168
168,0,0,0,0,0,71861.29688,0,0,0,0,0,0,0,0,0,0,0,0,0,0,0,0,0,0,168
168,0,0,0,0,0,75500.28125,0,0,0,0,0,0,0,0,0,0,0,0,0,0,0,0,0,0,168
168,0,0,0,0,0,80048.71094,0,0,0,0,0,0,0,0,0,0,0,0,0,0,0,0,0,0,168
168,0,0,0,0,0,82777.71875,0,0,0,0,0,0,0,0,0,0,0,0,0,0,0,0,0,0,168
168,0,0,0,0,0,88235.83594,0,0,0,0,0,0,0,0,0,0,0,0,0,0,0,0,0,0,168
168,0,0,0,0,0,92783.83594,0,0,0,0,0,0,0,0,0,0,0,0,0,0,0,0,0,0,168
168,0,0,0,0,0,96422.07813,0,0,0,0,0,0,0,0,0,0,0,0,0,0,0,0,0,0,168
168,0,0,0,0,0,100970.375,0,0,0,0,0,0,0,0,0,0,0,0,0,0,0,0,0,0,168
168,0,0,0,0,0,104609.2969,0,0,0,0,0,0,0,0,0,0,0,0,0,0,0,0,0,0,168
168,0,0,0,0,0,109157.5625,0,0,0,0,0,0,0,0,0,0,0,0,0,0,0,0,0,0,168
168,0,0,0,0,0,112796.1094,0,0,0,0,0,0,0,0,0,0,0,0,0,0,0,0,0,0,168
168,0,0,0,0,0,117344.3203,0,0,0,0,0,0,0,0,0,0,0,0,0,0,0,0,0,0,168
168,0,0,0,0,0,121892.5781,0,0,0,0,0,0,0,0,0,0,0,0,0,0,0,0,0,0,168
168,0,0,0,0,0,125531.3047,0,0,0,0,0,0,0,0,0,0,0,0,0,0,0,0,0,0,168
168,0,0,0,0,0,130989.1719,0,0,0,0,0,0,0,0,0,0,0,0,0,0,0,0,0,0,168
168,0,0,0,0,0,135537.4688,0,0,0,0,0,0,0,0,0,0,0,0,0,0,0,0,0,0,168
168,0,0,0,0,0,139175.9844,0,0,0,0,0,0,0,0,0,0,0,0,0,0,0,0,0,0,168
168,0,0,0,0,0,143724.2813,0,0,0,0,0,0,0,0,0,0,0,0,0,0,0,0,0,0,168
168,0,0,0,0,0,148273.0156,0,0,0,0,0,0,0,0,0,0,0,0,0,0,0,0,0,0,168
168,0,0,0,0,0,151911.7031,0,0,0,0,0,0,0,0,0,0,0,0,0,0,0,0,0,0,168
168,0,0,0,0,0,156460.2344,0,0,0,0,0,0,0,0,0,0,0,0,0,0,0,0,0,0,168
164,0,0,0,0,0,10004.65039,0,0,0,0,0,0,0,0,0,0,0,0,0,0,0,0,0,0,164
164,0,0,0,0,0,14552.68066,0,0,0,0,0,0,0,0,0,0,0,0,0,0,0,0,0,0,164
164,0,0,0,0,0,18191.08984,0,0,0,0,0,0,0,0,0,0,0,0,0,0,0,0,0,0,164
164,0,0,0,0,0,22739.08008,0,0,0,0,0,0,0,0,0,0,0,0,0,0,0,0,0,0,164
164,0,0,0,0,0,27287.21094,0,0,0,0,0,0,0,0,0,0,0,0,0,0,0,0,0,0,164
164,0,0,0,0,0,30925.96875,0,0,0,0,0,0,0,0,0,0,0,0,0,0,0,0,0,0,164
164,0,0,0,0,0,35474.07031,0,0,0,0,0,0,0,0,0,0,0,0,0,0,0,0,0,0,164
164,0,0,0,0,0,40022.41797,0,0,0,0,0,0,0,0,0,0,0,0,0,0,0,0,0,0,164
164,0,0,0,0,0,44570.98047,0,0,0,0,0,0,0,0,0,0,0,0,0,0,0,0,0,0,164
164,0,0,0,0,0,48209.41016,0,0,0,0,0,0,0,0,0,0,0,0,0,0,0,0,0,0,164
164,0,0,0,0,0,52757.67578,0,0,0,0,0,0,0,0,0,0,0,0,0,0,0,0,0,0,164
164,0,0,0,0,0,57306.24609,0,0,0,0,0,0,0,0,0,0,0,0,0,0,0,0,0,0,164
164,0,0,0,0,0,60944.75,0,0,0,0,0,0,0,0,0,0,0,0,0,0,0,0,0,0,164
164,0,0,0,0,0,65493.07813,0,0,0,0,0,0,0,0,0,0,0,0,0,0,0,0,0,0,164
164,0,0,0,0,0,70041.57031,0,0,0,0,0,0,0,0,0,0,0,0,0,0,0,0,0,0,164
164,0,0,0,0,0,73680.40625,0,0,0,0,0,0,0,0,0,0,0,0,0,0,0,0,0,0,164
164,0,0,0,0,0,78228.73438,0,0,0,0,0,0,0,0,0,0,0,0,0,0,0,0,0,0,164
164,0,0,0,0,0,83687.07031,0,0,0,0,0,0,0,0,0,0,0,0,0,0,0,0,0,0,164
164,0,0,0,0,0,87325.92188,0,0,0,0,0,0,0,0,0,0,0,0,0,0,0,0,0,0,164
164,0,0,0,0,0,91874.08594,0,0,0,0,0,0,0,0,0,0,0,0,0,0,0,0,0,0,164
164,0,0,0,0,0,96422.05469,0,0,0,0,0,0,0,0,0,0,0,0,0,0,0,0,0,0,164
164,0,0,0,0,0,100970.3047,0,0,0,0,0,0,0,0,0,0,0,0,0,0,0,0,0,0,164
164,0,0,0,0,0,105518.6563,0,0,0,0,0,0,0,0,0,0,0,0,0,0,0,0,0,0,164
164,0,0,0,0,0,109157.1797,0,0,0,0,0,0,0,0,0,0,0,0,0,0,0,0,0,0,164
164,0,0,0,0,0,113705.6328,0,0,0,0,0,0,0,0,0,0,0,0,0,0,0,0,0,0,164
164,0,0,0,0,0,118254.2422,0,0,0,0,0,0,0,0,0,0,0,0,0,0,0,0,0,0,164
164,0,0,0,0,0,122802.6563,0,0,0,0,0,0,0,0,0,0,0,0,0,0,0,0,0,0,164
164,0,0,0,0,0,127351.1484,0,0,0,0,0,0,0,0,0,0,0,0,0,0,0,0,0,0,164
164,0,0,0,0,0,131899.4531,0,0,0,0,0,0,0,0,0,0,0,0,0,0,0,0,0,0,164
164,0,0,0,0,0,136447.6563,0,0,0,0,0,0,0,0,0,0,0,0,0,0,0,0,0,0,164
164,0,0,0,0,0,140996.25,0,0,0,0,0,0,0,0,0,0,0,0,0,0,0,0,0,0,164
164,0,0,0,0,0,144635.0469,0,0,0,0,0,0,0,0,0,0,0,0,0,0,0,0,0,0,164
164,0,0,0,0,0,149183.6563,0,0,0,0,0,0,0,0,0,0,0,0,0,0,0,0,0,0,164
164,0,0,0,0,0,152822.3594,0,0,0,0,0,0,0,0,0,0,0,0,0,0,0,0,0,0,164
164,0,0,0,0,0,157370.5313,0,0,0,0,0,0,0,0,0,0,0,0,0,0,0,0,0,0,164
164,0,0,0,0,0,161919.0469,0,0,0,0,0,0,0,0,0,0,0,0,0,0,0,0,0,0,164
164,0,0,0,0,0,165557.5,0,0,0,0,0,0,0,0,0,0,0,0,0,0,0,0,0,0,164
164,0,0,0,0,0,170105.7031,0,0,0,0,0,0,0,0,0,0,0,0,0,0,0,0,0,0,164
164,0,0,0,0,0,174654.3594,0,0,0,0,0,0,0,0,0,0,0,0,0,0,0,0,0,0,164
164,0,0,0,0,0,179202.8594,0,0,0,0,0,0,0,0,0,0,0,0,0,0,0,0,0,0,164
164,0,0,0,0,0,183751.7344,0,0,0,0,0,0,0,0,0,0,0,0,0,0,0,0,0,0,164
164,0,0,0,0,0,188300.0625,0,0,0,0,0,0,0,0,0,0,0,0,0,0,0,0,0,0,164
164,0,0,0,0,0,192848.3281,0,0,0,0,0,0,0,0,0,0,0,0,0,0,0,0,0,0,164
164,0,0,0,0,0,197396.2188,0,0,0,0,0,0,0,0,0,0,0,0,0,0,0,0,0,0,164
164,0,0,0,0,0,201035.0313,0,0,0,0,0,0,0,0,0,0,0,0,0,0,0,0,0,0,164
164,0,0,0,0,0,205583.0156,0,0,0,0,0,0,0,0,0,0,0,0,0,0,0,0,0,0,164
164,0,0,0,0,0,210131.5938,0,0,0,0,0,0,0,0,0,0,0,0,0,0,0,0,0,0,164
164,0,0,0,0,0,214679.9844,0,0,0,0,0,0,0,0,0,0,0,0,0,0,0,0,0,0,164
164,0,0,0,0,0,219228.2188,0,0,0,0,0,0,0,0,0,0,0,0,0,0,0,0,0,0,164
164,0,0,0,0,0,223776.9844,0,0,0,0,0,0,0,0,0,0,0,0,0,0,0,0,0,0,164
3322,0,0,0.292652,35.490002,909.599976,909.663147,0,0,0,0,0,0,0.175343,0.101235,1.233987,-7.565087,0.0625,-0.020833,0.084141,0,0,0,0,0,3322
3412,0,0,0.480425,35.540001,909.690002,909.663147,0,0,0,0,0,0,0.301804,0.174247,1.72979,-9.509525,-0.088437,0.038978,0.068094,0,0,0,0,0,3412
3463,0,1,0.220836,35.580002,909.609985,909.663147,0,0,0,-169.041565,0.61762,192.919235,0.32928,0.19011,1.81838,-9.537503,-0.331572,-0.010957,0.0588,0,0,0,0,0,3463
3514,0,1,0.295899,35.639999,909.690002,909.663147,0,0,0,-169.020203,0.963643,192.932434,0.317725,0.183439,1.909861,-9.551226,-0.408133,-0.056255,0.083578,0,0,0,0,0,3514
3575,0,1,0.258838,35.66,909.609985,909.663147,0,0,0,-169.000412,1.075166,192.93457,0.30316,0.175029,1.969838,-9.55247,-0.398441,-0.047715,0.081364,0,0,0,0,0,3575
3625,0,1,-0.096968,35.669998,909.700012,909.663147,0,0,0,-168.965103,1.124116,192.935577,0.322833,0.186387,2.031309,-9.555131,-0.324718,0.001034,0.097988,0,0,0,0,0,3625
3676,0,1,-0.071789,35.709999,909.799988,909.663147,0,0,0,-168.930008,1.142886,192.936005,0.305739,0.176519,2.042672,-9.558417,-0.154653,0.021322,0.106234,0,0,0,0,0,3676
3727,0,1,-0.106838,35.720001,909.650024,909.663147,0,0,0,-168.900375,1.1538,192.936279,0.326129,0.18829,2.034379,-9.560152,0.005233,0.039056,0.044011,0,0,0,0,0,3727
3787,0,1,0.069008,35.720001,909.659973,909.663147,0,0,0,-168.876862,1.161883,192.936493,0.315467,0.182135,2.012137,-9.56123,0.110381,0.009082,0.058273,0,0,0,0,0,3787
3838,0,1,0.165233,35.740002,909.669983,909.663147,0,0,0,-168.863739,1.166353,192.936646,0.327353,0.188997,2.012397,-9.561083,0.153229,0.017592,0.048053,0,0,0,0,0,3838
3889,0,1,-0.241185,35.75,909.840027,909.663147,0,0,0,-168.854309,1.169606,192.936722,0.309837,0.178885,2.005864,-9.560521,0.208183,-0.015912,0.10296,0,0,0,0,0,3889
3939,0,1,-0.217349,35.73,909.630005,909.663147,0,0,0,-168.836288,1.172065,192.936798,0.316133,0.182519,2.019275,-9.561272,0.236554,0.018551,0.110346,0,0,0,0,0,3939
3990,0,1,-0.30995,35.75,909.799988,909.663147,0,0,0,-168.821671,1.173979,192.936874,0.321281,0.185492,2.020068,-9.561714,0.322641,0.022653,0.161717,0,0,0,0,0,3990
4041,0,1,-0.530308,35.779999,909.76001,909.663147,0,0,0,-168.809998,1.175505,192.936951,0.312784,0.180586,2.011998,-9.562263,0.412262,0.041059,0.158258,0,0,0,0,0,4041
4091,0,1,0.007023,35.77,909.640015,909.663147,0,0,0,-168.80072,1.176747,192.937027,0.318618,0.183954,1.994506,-9.563064,0.457421,0.075907,0.144467,0,0,0,0,0,4091
4142,0,1,-0.092573,35.790001,909.73999,909.663147,0,0,0,-168.79335,1.177775,192.937027,0.332039,0.191703,1.975066,-9.563296,0.416077,0.065439,0.151017,0,0,0,0,0,4142
4193,0,1,-0.162285,35.790001,909.659973,909.663147,0,0,0,-168.787445,1.178638,192.937027,0.333156,0.192348,1.96652,-9.563934,0.340693,0.052925,0.148591,0,0,0,0,0,4193
4243,0,1,-0.083094,35.779999,909.609985,909.663147,0,0,0,-168.782654,1.179372,192.937027,0.328858,0.189866,1.957613,-9.563386,0.280011,0.034102,0.148661,0,0,0,0,0,4243
4294,0,1,0.052841,35.799999,909.669983,909.663147,0,0,0,-168.778763,1.180002,192.937027,0.333241,0.192397,1.949174,-9.563028,0.202826,0.027777,0.146946,0,0,0,0,0,4294
4345,0,1,0.002758,35.779999,909.679993,909.663147,0,0,0,-168.775528,1.180549,192.937027,0.334111,0.192899,1.947264,-9.563352,0.076107,0.009953,0.137677,0,0,0,0,0,4345
4395,0,1,-0.073525,35.77,909.619995,909.663147,0,0,0,-168.772827,1.181027,192.937027,0.330646,0.190898,1.94902,-9.564132,0.011629,0.010421,0.129751,0,0,0,0,0,4395
4456,0,1,-0.290173,35.799999,909.73999,909.663147,0,0,0,-168.770126,1.181527,192.937027,0.330478,0.190802,1.95349,-9.564306,-0.056042,0.01219,0.117955,0,0,0,0,0,4456
4507,0,1,-0.336519,35.810001,909.679993,909.663147,0,0,0,-168.768265,1.181893,192.937027,0.331707,0.191511,1.95539,-9.564287,-0.043077,0.007047,0.116187,0,0,0,0,0,4507
4567,0,1,0.364039,35.790001,909.590027,909.663147,0,0,0,-168.766373,1.182281,192.937027,0.334589,0.193175,1.949093,-9.566703,-0.022308,0.003477,0.086498,0,0,0,0,0,4567
4618,0,1,-0.156716,35.82,909.809998,909.663147,0,0,0,-168.765015,1.182568,192.937027,0.332465,0.191949,1.945332,-9.56919,-0.055559,-0.00406,0.081053,0,0,0,0,0,4618
4669,0,1,-0.382978,35.830002,909.710022,909.663147,0,0,0,-168.763855,1.182828,192.937027,0.333173,0.192357,1.946699,-9.571213,-0.086133,-0.011889,0.056661,0,0,0,0,0,4669
4719,0,1,0.031975,35.77,909.630005,909.663147,0,0,0,-168.762833,1.183063,192.937027,0.332661,0.192062,1.952786,-9.574331,-0.117429,-0.034265,0.02066,0,0,0,0,0,4719
4770,0,1,0.024271,35.810001,909.650024,909.663147,0,0,0,-168.761932,1.180791,192.937027,0.330628,0.190888,1.953418,-9.576858,-0.134993,-0.018087,-0.010633,0,0,0,0,0,4770
4821,0,1,-0.03996,35.810001,909.679993,909.663147,0,0,0,-168.75853,1.179867,192.937027,0.327014,0.188802,1.959143,-9.5795,-0.272538,0.047684,0.017644,0,0,0,0,0,4821
4881,0,1,-0.150859,35.810001,909.630005,909.663147,0,0,0,-168.74855,1.180321,192.937027,0.325748,0.188071,1.974821,-9.580381,-0.475606,0.279489,-0.021138,0,0,0,0,0,4881
4932,0,1,-0.246668,35.82,909.700012,909.663147,0,0,0,-168.738068,1.180666,192.937027,0.332173,0.19178,1.973467,-9.581777,-0.080575,0.175026,0.063448,0,0,0,0,0,4932
4983,0,1,0.119083,35.790001,909.549988,909.663147,0,0,0,-168.727341,1.180982,192.937439,0.333649,0.192632,1.96128,-9.583662,0.124588,-0.010101,0.32726,0,0,0,0,0,4983
5033,0,1,0.137629,35.810001,909.669983,909.663147,-0.015204,0,-0.015204,-168.716812,1.181274,192.93959,0.330616,0.190881,1.956545,-9.585549,0.096875,-0.102109,0.407769,0,0,0,0,0,5033
5093,0,1,-0.161113,35.779999,909.650024,909.663147,-0.015204,0,-0.015204,-168.706787,1.181544,192.941818,0.338038,0.195166,1.959116,-9.587441,-0.000106,-0.085715,0.253954,0,0,0,0,0,5093
5148,0,1,0.288885,35.77,909.539978,909.663147,-0.015204,0,-0.015204,-168.697556,1.181795,192.944107,0.328229,0.189503,1.972116,-9.588278,-0.041552,-0.111474,0.192714,0,0,0,0,0,5148
5216,0,1,-0.16667,35.82,909.72998,909.663147,-0.445571,0,-0.445571,-168.683075,1.182071,192.946945,0.327728,0.189214,1.996322,-9.589953,0.054293,-0.084415,0.288212,0,0,0,0,0,5216
5277,0,1,-0.472099,35.82,909.789978,909.663147,-0.445571,0,-0.445571,-168.664993,1.182326,192.949783,0.326662,0.188598,1.998963,-9.591492,0.222447,-0.032456,0.283759,0,0,0,0,0,5277
5327,0,1,-0.104227,35.810001,909.719971,909.663147,-0.445571,0,-0.445571,-168.65126,1.182522,192.952148,0.331547,0.191419,1.993708,-9.592606,0.310285,-0.006761,0.178381,0,0,0,0,0,5327
5378,0,1,0.118614,35.790001,909.580017,909.663147,-0.445571,0,-0.445571,-168.639114,1.182706,192.954514,0.32718,0.188898,1.987326,-9.593639,0.346936,-0.005808,0.113839,0,0,0,0,0,5378
5429,0,1,0.219507,35.790001,909.570007,909.663147,0.934438,0.934438,-0.445571,-168.628632,1.182878,192.956833,0.330431,0.190774,1.984445,-9.593864,0.354269,0.0086,0.072991,0,0,0,0,0,5429
5479,0,1,0.202533,35.790001,909.599976,909.663147,0.934438,0.934438,-0.445571,-168.619766,1.183039,192.959091,0.335001,0.193413,1.977187,-9.595188,0.342239,-0.008944,0.076679,0,0,0,0,0,5479
5530,0,1,0.000463,35.830002,909.76001,909.663147,0.934438,0.934438,-0.445571,-168.612305,1.183191,192.961288,0.337963,0.195123,1.961221,-9.596334,0.303104,-0.024413,0.089879,0,0,0,0,0,5530
5570,0,1,-0.060696,35.830002,909.75,909.663147,0.934438,0.934438,-0.445571,-168.607208,1.183306,192.962982,0.333606,0.192607,1.949975,-9.59658,0.260461,-0.061255,0.168272,0,0,0,0,0,5570
5621,0,1,0.16036,35.810001,909.599976,909.663147,0.68115,0.934438,-0.445571,-168.601807,1.183443,192.965012,0.337677,0.194958,1.953041,-9.598016,0.193432,-0.093237,0.316833,0,0,0,0,0,5621
5672,0,1,-0.174876,35.830002,909.690002,909.663147,0.68115,0.934438,-0.445571,-168.59729,1.183572,192.966949,0.329401,0.19018,1.964275,-9.599085,0.108878,-0.08452,0.242005,0,0,0,0,0,5672
5732,0,1,-0.311228,35.830002,909.76001,909.663147,0.68115,0.934438,-0.445571,-168.592773,1.183717,192.969147,0.33696,0.194544,1.955141,-9.600493,0.050141,-0.020327,0.074233,0,0,0,0,0,5732
5783,0,1,0.113432,35.82,909.599976,909.663147,0.68115,0.934438,-0.445571,-168.589645,1.183831,192.970871,0.344374,0.198825,1.946847,-9.600947,-0.058408,-0.024169,-0.0931,0,0,0,0,0,5783
5844,0,1,-0.189689,35.849998,909.75,909.663147,-1.920416,0.934438,-1.920416,-168.586487,1.183959,192.972809,0.331014,0.191111,1.962617,-9.601274,-0.129341,-0.031435,-0.137159,0,0,0,0,0,5844
5894,0,1,0.233047,35.830002,909.619995,909.663147,-1.920416,0.934438,-1.920416,-168.584274,1.184061,192.974304,0.333602,0.192605,1.961385,-9.601578,-0.152685,0.03184,-0.184961,0,0,0,0,0,5894
5945,0,1,0.177933,35.82,909.609985,909.663147,-1.920416,0.934438,-1.920416,-168.582352,1.184157,192.975708,0.349408,0.201731,1.962859,-9.603686,-0.156891,0.042146,-0.293381,0,0,0,0,0,5945
6014,0,1,-0.310103,35.84,909.799988,909.663147,-1.920416,0.934438,-1.920416,-168.580383,1.184267,192.977295,0.334372,0.19305,1.981489,-9.603519,-0.044993,0.002019,-0.125481,0,0,0,0,0,6014
6056,0,1,-0.050298,35.799999,909.599976,909.663147,0.223314,0.934438,-1.920416,-168.579254,1.184336,192.978271,0.34114,0.196957,1.981991,-9.604149,0.052763,0.023616,-0.068824,0,0,0,0,0,6056
6107,0,1,0.245159,35.830002,909.52002,909.663147,0.223314,0.934438,-1.920416,-168.577011,1.184419,192.979431,0.343909,0.198556,1.978644,-9.603956,0.151285,0.023225,-0.017383,0,0,0,0,0,6107
6158,0,1,0.188605,35.830002,909.640015,909.663147,0.223314,0.934438,-1.920416,-168.575943,1.184499,192.981827,0.342368,0.197666,1.969126,-9.604413,0.177612,0.002415,0.203295,0,0,0,0,0,6158
6208,0,1,0.40452,35.830002,909.52002,909.663147,0.223314,0.934438,-1.920416,-168.574112,1.184575,192.986343,0.336896,0.194507,1.979183,-9.604839,0.188056,-0.005597,0.105659,0,0,0,0,0,6208
6259,0,1,-0.264232,35.830002,909.72998,909.663147,1.414169,1.414169,-1.920416,-168.570663,1.184647,192.990967,0.333333,0.19245,1.976111,-9.60489,0.289157,-0.057398,0.67133,0,0,0,0,0,6259
6310,0,1,0.047385,35.830002,909.659973,909.663147,1.414169,1.414169,-1.920416,-168.570099,1.184716,193.001923,0.350462,0.202339,1.982504,-9.606043,0.41137,-0.184739,1.04015,0,0,0,0,0,6310
6370,0,1,-0.136876,35.810001,909.669983,909.663147,1.414169,1.414169,-1.920416,-168.569595,1.184783,193.017746,0.334651,0.193211,1.978011,-9.606633,0.39228,-0.135724,0.080522,0,0,0,0,0,6370
6428,0,1,0.098901,35.810001,909.659973,909.663147,1.414169,1.414169,-1.920416,-168.569138,1.184846,193.032593,0.349197,0.201609,1.963468,-9.606604,0.350106,-0.03663,-0.236852,0,0,0,0,0,6428
6483,0,1,-0.362996,35.830002,909.719971,909.663147,-0.588683,1.414169,-1.920416,-168.568756,1.184907,193.043015,0.350481,0.20235,1.951065,-9.606333,0.243051,-0.018184,-0.154485,0,0,0,0,0,6483
6542,0,1,-0.006876,35.810001,909.679993,909.663147,-0.588683,1.414169,-1.920416,-168.56839,1.184966,193.052567,0.341674,0.197265,1.957579,-9.607063,0.13239,0.025081,-0.254821,0,0,0,0,0,6542
6602,0,1,-0.213797,35.82,909.690002,909.663147,-0.588683,1.414169,-1.920416,-168.568085,1.185022,193.061096,0.342746,0.197884,1.96855,-9.607101,0.115339,0.052357,-0.270358,0,0,0,0,0,6602
6664,0,1,-0.17981,35.799999,909.580017,909.663147,-1.385148,1.414169,-1.920416,-168.567719,1.185087,193.069977,0.329263,0.1901,1.997203,-9.607391,0.257627,0.048111,-0.259065,0,0,0,0,0,6664
6715,0,1,0.064852,35.810001,909.580017,909.663147,-1.385148,1.414169,-1.920416,-168.567474,1.185138,193.076309,0.326932,0.188754,2.002583,-9.607494,0.519731,0.076715,-0.198073,0,0,0,0,0,6715
6765,0,1,-0.267971,35.84,909.75,909.663147,-1.385148,1.414169,-1.920416,-168.569077,1.185188,193.081757,0.319936,0.184715,1.983893,-9.60759,0.740748,0.09503,-0.128652,0,0,0,0,0,6765
6816,0,1,-0.234159,35.830002,909.659973,909.663147,-1.385148,1.414169,-1.920416,-168.573212,1.185236,193.086441,0.330402,0.190757,1.943918,-9.60805,0.796488,0.092347,0.010551,0,0,0,0,0,6816
6867,0,1,-0.105889,35.84,909.700012,909.663147,1.6776,1.6776,-1.920416,-168.579758,1.185282,193.090469,0.333662,0.19264,1.903177,-9.608493,0.431646,0.15163,0.010628,0,0,0,0,0,6867
173,0,0,0,0,0,10914.20117,0,0,0,0,0,0,0,0,0,0,0,0,0,0,0,0,0,0,173
173,0,0,0,0,0,15461.74121,0,0,0,0,0,0,0,0,0,0,0,0,0,0,0,0,0,0,173
173,0,0,0,0,0,19100.30078,0,0,0,0,0,0,0,0,0,0,0,0,0,0,0,0,0,0,173
173,0,0,0,0,0,22738.88086,0,0,0,0,0,0,0,0,0,0,0,0,0,0,0,0,0,0,173
173,0,0,0,0,0,27286.8125,0,0,0,0,0,0,0,0,0,0,0,0,0,0,0,0,0,0,173
173,0,0,0,0,0,31835.02344,0,0,0,0,0,0,0,0,0,0,0,0,0,0,0,0,0,0,173
173,0,0,0,0,0,35473.41406,0,0,0,0,0,0,0,0,0,0,0,0,0,0,0,0,0,0,173
173,0,0,0,0,0,40021.32813,0,0,0,0,0,0,0,0,0,0,0,0,0,0,0,0,0,0,173
173,0,0,0,0,0,43659.82813,0,0,0,0,0,0,0,0,0,0,0,0,0,0,0,0,0,0,173
173,0,0,0,0,0,48208.07031,0,0,0,0,0,0,0,0,0,0,0,0,0,0,0,0,0,0,173
173,0,0,0,0,0,51846.5,0,0,0,0,0,0,0,0,0,0,0,0,0,0,0,0,0,0,173
173,0,0,0,0,0,56394.60547,0,0,0,0,0,0,0,0,0,0,0,0,0,0,0,0,0,0,173
173,0,0,0,0,0,60033.15234,0,0,0,0,0,0,0,0,0,0,0,0,0,0,0,0,0,0,173
173,0,0,0,0,0,64581.41797,0,0,0,0,0,0,0,0,0,0,0,0,0,0,0,0,0,0,173
173,0,0,0,0,0,69129.83594,0,0,0,0,0,0,0,0,0,0,0,0,0,0,0,0,0,0,173
173,0,0,0,0,0,72768.22656,0,0,0,0,0,0,0,0,0,0,0,0,0,0,0,0,0,0,173
173,0,0,0,0,0,77316.53125,0,0,0,0,0,0,0,0,0,0,0,0,0,0,0,0,0,0,173
173,0,0,0,0,0,80955.15625,0,0,0,0,0,0,0,0,0,0,0,0,0,0,0,0,0,0,173
173,0,0,0,0,0,85503.13281,0,0,0,0,0,0,0,0,0,0,0,0,0,0,0,0,0,0,173
173,0,0,0,0,0,90051.26563,0,0,0,0,0,0,0,0,0,0,0,0,0,0,0,0,0,0,173
173,0,0,0,0,0,94598.63281,0,0,0,0,0,0,0,0,0,0,0,0,0,0,0,0,0,0,173
173,0,0,0,0,0,99147.03906,0,0,0,0,0,0,0,0,0,0,0,0,0,0,0,0,0,0,173
173,0,0,0,0,0,103695.1563,0,0,0,0,0,0,0,0,0,0,0,0,0,0,0,0,0,0,173
173,0,0,0,0,0,108243.6328,0,0,0,0,0,0,0,0,0,0,0,0,0,0,0,0,0,0,173
173,0,0,0,0,0,112791.7969,0,0,0,0,0,0,0,0,0,0,0,0,0,0,0,0,0,0,173
173,0,0,0,0,0,117340.1797,0,0,0,0,0,0,0,0,0,0,0,0,0,0,0,0,0,0,173
173,0,0,0,0,0,120978.625,0,0,0,0,0,0,0,0,0,0,0,0,0,0,0,0,0,0,173
173,0,0,0,0,0,125526.8281,0,0,0,0,0,0,0,0,0,0,0,0,0,0,0,0,0,0,173
173,0,0,0,0,0,130074.8203,0,0,0,0,0,0,0,0,0,0,0,0,0,0,0,0,0,0,173
173,0,0,0,0,0,134623,0,0,0,0,0,0,0,0,0,0,0,0,0,0,0,0,0,0,173
173,0,0,0,0,0,139171.3594,0,0,0,0,0,0,0,0,0,0,0,0,0,0,0,0,0,0,173
173,0,0,0,0,0,143719.7188,0,0,0,0,0,0,0,0,0,0,0,0,0,0,0,0,0,0,173
173,0,0,0,0,0,147358.2969,0,0,0,0,0,0,0,0,0,0,0,0,0,0,0,0,0,0,173
173,0,0,0,0,0,151906.7813,0,0,0,0,0,0,0,0,0,0,0,0,0,0,0,0,0,0,173
173,0,0,0,0,0,156455.2031,0,0,0,0,0,0,0,0,0,0,0,0,0,0,0,0,0,0,173
173,0,0,0,0,0,161003.4531,0,0,0,0,0,0,0,0,0,0,0,0,0,0,0,0,0,0,173
173,0,0,0,0,0,164641.9219,0,0,0,0,0,0,0,0,0,0,0,0,0,0,0,0,0,0,173
173,0,0,0,0,0,169190.4063,0,0,0,0,0,0,0,0,0,0,0,0,0,0,0,0,0,0,173
173,0,0,0,0,0,172828.9219,0,0,0,0,0,0,0,0,0,0,0,0,0,0,0,0,0,0,173
173,0,0,0,0,0,176467.5625,0,0,0,0,0,0,0,0,0,0,0,0,0,0,0,0,0,0,173
173,0,0,0,0,0,181925.7188,0,0,0,0,0,0,0,0,0,0,0,0,0,0,0,0,0,0,173
173,0,0,0,0,0,186473.8125,0,0,0,0,0,0,0,0,0,0,0,0,0,0,0,0,0,0,173
173,0,0,0,0,0,191022.3438,0,0,0,0,0,0,0,0,0,0,0,0,0,0,0,0,0,0,173
173,0,0,0,0,0,194660.6875,0,0,0,0,0,0,0,0,0,0,0,0,0,0,0,0,0,0,173
173,0,0,0,0,0,199208.7813,0,0,0,0,0,0,0,0,0,0,0,0,0,0,0,0,0,0,173
173,0,0,0,0,0,203756.7969,0,0,0,0,0,0,0,0,0,0,0,0,0,0,0,0,0,0,173
173,0,0,0,0,0,208304.7656,0,0,0,0,0,0,0,0,0,0,0,0,0,0,0,0,0,0,173
173,0,0,0,0,0,211943.4063,0,0,0,0,0,0,0,0,0,0,0,0,0,0,0,0,0,0,173
173,0,0,0,0,0,216491.875,0,0,0,0,0,0,0,0,0,0,0,0,0,0,0,0,0,0,173
173,0,0,0,0,0,220130.375,0,0,0,0,0,0,0,0,0,0,0,0,0,0,0,0,0,0,173
168,0,0,0,0,0,10043.57031,0,0,0,0,0,0,0,0,0,0,0,0,0,0,0,0,0,0,168
168,0,0,0,0,0,14608.41016,0,0,0,0,0,0,0,0,0,0,0,0,0,0,0,0,0,0,168
168,0,0,0,0,0,18260.55078,0,0,0,0,0,0,0,0,0,0,0,0,0,0,0,0,0,0,168
168,0,0,0,0,0,22825.71094,0,0,0,0,0,0,0,0,0,0,0,0,0,0,0,0,0,0,168
168,0,0,0,0,0,27391.49023,0,0,0,0,0,0,0,0,0,0,0,0,0,0,0,0,0,0,168
168,0,0,0,0,0,31957.08203,0,0,0,0,0,0,0,0,0,0,0,0,0,0,0,0,0,0,168
168,0,0,0,0,0,35609.33203,0,0,0,0,0,0,0,0,0,0,0,0,0,0,0,0,0,0,168
168,0,0,0,0,0,39261.71484,0,0,0,0,0,0,0,0,0,0,0,0,0,0,0,0,0,0,168
168,0,0,0,0,0,43827.5625,0,0,0,0,0,0,0,0,0,0,0,0,0,0,0,0,0,0,168
168,0,0,0,0,0,48393.08594,0,0,0,0,0,0,0,0,0,0,0,0,0,0,0,0,0,0,168
168,0,0,0,0,0,52045.83594,0,0,0,0,0,0,0,0,0,0,0,0,0,0,0,0,0,0,168
168,0,0,0,0,0,56611.4375,0,0,0,0,0,0,0,0,0,0,0,0,0,0,0,0,0,0,168
168,0,0,0,0,0,61177.11719,0,0,0,0,0,0,0,0,0,0,0,0,0,0,0,0,0,0,168
168,0,0,0,0,0,65742.65625,0,0,0,0,0,0,0,0,0,0,0,0,0,0,0,0,0,0,168
168,0,0,0,0,0,70308.14063,0,0,0,0,0,0,0,0,0,0,0,0,0,0,0,0,0,0,168
168,0,0,0,0,0,74873.79688,0,0,0,0,0,0,0,0,0,0,0,0,0,0,0,0,0,0,168
168,0,0,0,0,0,79439.60938,0,0,0,0,0,0,0,0,0,0,0,0,0,0,0,0,0,0,168
168,0,0,0,0,0,84005.35938,0,0,0,0,0,0,0,0,0,0,0,0,0,0,0,0,0,0,168
168,0,0,0,0,0,89484.15625,0,0,0,0,0,0,0,0,0,0,0,0,0,0,0,0,0,0,168
168,0,0,0,0,0,94049.28125,0,0,0,0,0,0,0,0,0,0,0,0,0,0,0,0,0,0,168
168,0,0,0,0,0,98614.94531,0,0,0,0,0,0,0,0,0,0,0,0,0,0,0,0,0,0,168
168,0,0,0,0,0,103181.0938,0,0,0,0,0,0,0,0,0,0,0,0,0,0,0,0,0,0,168
168,0,0,0,0,0,107746.9766,0,0,0,0,0,0,0,0,0,0,0,0,0,0,0,0,0,0,168
168,0,0,0,0,0,112312.7813,0,0,0,0,0,0,0,0,0,0,0,0,0,0,0,0,0,0,168
168,0,0,0,0,0,116878.7891,0,0,0,0,0,0,0,0,0,0,0,0,0,0,0,0,0,0,168
168,0,0,0,0,0,120531.5938,0,0,0,0,0,0,0,0,0,0,0,0,0,0,0,0,0,0,168
168,0,0,0,0,0,125097.4297,0,0,0,0,0,0,0,0,0,0,0,0,0,0,0,0,0,0,168
168,0,0,0,0,0,129663.1641,0,0,0,0,0,0,0,0,0,0,0,0,0,0,0,0,0,0,168
168,0,0,0,0,0,134229.0313,0,0,0,0,0,0,0,0,0,0,0,0,0,0,0,0,0,0,168
168,0,0,0,0,0,138795.1563,0,0,0,0,0,0,0,0,0,0,0,0,0,0,0,0,0,0,168
168,0,0,0,0,0,143361.0938,0,0,0,0,0,0,0,0,0,0,0,0,0,0,0,0,0,0,168
168,0,0,0,0,0,147926.9688,0,0,0,0,0,0,0,0,0,0,0,0,0,0,0,0,0,0,168
168,0,0,0,0,0,152492.9375,0,0,0,0,0,0,0,0,0,0,0,0,0,0,0,0,0,0,168
168,0,0,0,0,0,157058.5,0,0,0,0,0,0,0,0,0,0,0,0,0,0,0,0,0,0,168
168,0,0,0,0,0,161624.5,0,0,0,0,0,0,0,0,0,0,0,0,0,0,0,0,0,0,168
168,0,0,0,0,0,166190.4531,0,0,0,0,0,0,0,0,0,0,0,0,0,0,0,0,0,0,168
168,0,0,0,0,0,170756.1406,0,0,0,0,0,0,0,0,0,0,0,0,0,0,0,0,0,0,168
168,0,0,0,0,0,175321.8125,0,0,0,0,0,0,0,0,0,0,0,0,0,0,0,0,0,0,168
168,0,0,0,0,0,179887.7188,0,0,0,0,0,0,0,0,0,0,0,0,0,0,0,0,0,0,168
168,0,0,0,0,0,184453.7813,0,0,0,0,0,0,0,0,0,0,0,0,0,0,0,0,0,0,168
168,0,0,0,0,0,189019.8594,0,0,0,0,0,0,0,0,0,0,0,0,0,0,0,0,0,0,168
168,0,0,0,0,0,193585.8906,0,0,0,0,0,0,0,0,0,0,0,0,0,0,0,0,0,0,168
168,0,0,0,0,0,198150.875,0,0,0,0,0,0,0,0,0,0,0,0,0,0,0,0,0,0,168
168,0,0,0,0,0,201803.1875,0,0,0,0,0,0,0,0,0,0,0,0,0,0,0,0,0,0,168
168,0,0,0,0,0,206368.9219,0,0,0,0,0,0,0,0,0,0,0,0,0,0,0,0,0,0,168
168,0,0,0,0,0,210021.7656,0,0,0,0,0,0,0,0,0,0,0,0,0,0,0,0,0,0,168
168,0,0,0,0,0,214587.3906,0,0,0,0,0,0,0,0,0,0,0,0,0,0,0,0,0,0,168
168,0,0,0,0,0,219153.0156,0,0,0,0,0,0,0,0,0,0,0,0,0,0,0,0,0,0,168
168,0,0,0,0,0,223718.9219,0,0,0,0,0,0,0,0,0,0,0,0,0,0,0,0,0,0,168
168,0,0,0,0,0,227371.5,0,0,0,0,0,0,0,0,0,0,0,0,0,0,0,0,0,0,168
3362,0,0,1.261039,21.76,913.01001,913.138794,0,0,0,0,0,59.989578,13.132501,-7.582053,7.341096,0.292555,-0.040148,0.041247,0.738197,0,0,0,0,0,3362
3432,0,1,1.458003,21.809999,912.859985,913.138794,0,0,0,-86.453392,-44.617165,359.9328,13.284918,-7.670051,7.421424,0.327824,-0.097041,-0.039234,0.553507,0,0,0,0,0,3432
3483,0,1,0.834717,21.84,912.960022,913.138794,0,0,0,-87.172073,-45.846653,359.935394,13.283048,-7.668971,7.42461,0.331807,-0.053272,-0.052757,0.24207,0,0,0,0,0,3483
3533,0,1,0.567143,21.879999,913.150024,913.138794,0,0,0,-87.180054,-45.875362,359.936157,13.324337,-7.69281,7.448716,0.33747,-0.029088,-0.044475,-0.206519,0,0,0,0,0,3533
3583,0,1,0.427256,21.91,913.179993,913.138794,0,0,0,-87.182625,-45.898426,359.936523,13.311619,-7.685467,7.428334,0.336325,-0.008677,-0.048777,-0.207755,0,0,0,0,0,3583
3634,0,1,0.507985,21.92,913.039978,913.138794,0,0,0,-87.183876,-45.898743,359.934113,13.338223,-7.700826,7.429079,0.338019,-0.000444,-0.054233,0.275135,0,0,0,0,0,3634
3694,0,1,-0.287826,21.950001,913.369995,913.138794,0,0,0,-87.184731,-45.877823,359.912048,13.341745,-7.70286,7.429067,0.337198,-0.008552,-0.070038,1.866384,0,0,0,0,0,3694
3745,0,1,-0.388502,21.950001,913.159973,913.138794,0,0,0,-87.185188,-45.831936,359.87088,13.323718,-7.692452,7.429893,0.335995,0.000409,-0.075725,2.589164,0,0,0,0,0,3745
3806,0,1,-0.134437,21.969999,913.090027,913.138794,0,0,0,-87.185524,-45.764435,359.803406,13.317419,-7.688816,7.447313,0.337183,-0.008743,-0.073295,2.363087,0,0,0,0,0,3806
3856,0,1,0.261552,21.98,913.059998,913.138794,0,0,0,-87.185814,-45.665714,359.698517,13.296441,-7.676704,7.456758,0.337334,-0.013166,-0.069224,1.473719,0,0,0,0,0,3856
3906,0,1,0.326325,21.99,913.070007,913.138794,0,0,0,-87.185997,-45.596252,359.618011,13.28833,-7.672021,7.465238,0.338556,-0.012114,-0.061503,0.26909,0,0,0,0,0,3906
3957,0,1,0.115395,22,913.159973,913.138794,0,0,0,-87.18615,-45.557663,359.575409,13.285241,-7.670238,7.47353,0.339251,-0.015816,-0.053807,-0.662692,0,0,0,0,0,3957
4007,0,1,-0.045094,22,913.140015,913.138794,0,0,0,-87.186264,-45.549591,359.562439,13.275632,-7.66469,7.47184,0.339669,-0.007624,-0.055233,-1.067453,0,0,0,0,0,4007
4068,0,1,0.07459,21.99,913.070007,913.138794,0,0,0,-87.186386,-45.565769,359.5784,13.281678,-7.66818,7.475515,0.340504,-0.011718,-0.047796,-1.681374,0,0,0,0,0,4068
4118,0,1,0.238818,22.02,913.080017,913.138794,0,0,0,-87.186462,-45.597912,359.608215,13.281296,-7.66796,7.473959,0.341385,-0.018915,-0.052509,-1.864386,0,0,0,0,0,4118
4169,0,1,0.1612,22.02,913.130005,913.138794,0,0,0,-87.186539,-45.644302,359.65799,13.288755,-7.672266,7.468416,0.34186,-0.014677,-0.044708,-1.922435,0,0,0,0,0,4169
4229,0,1,0.122825,22.030001,913.059998,913.138794,0,0,0,-87.18663,-45.719563,359.733002,13.304914,-7.681596,7.467551,0.342258,-0.005642,-0.043821,-1.618421,0,0,0,0,0,4229
4280,0,1,-0.063381,22.040001,913.27002,913.138794,0,0,0,-87.186668,-45.777973,359.787628,13.306412,-7.68246,7.456963,0.342631,0.000069,-0.0469,-0.877264,0,0,0,0,0,4280
4330,0,1,-0.173599,22.040001,913.23999,913.138794,0,0,0,-87.186707,-45.820629,359.827087,13.318355,-7.689356,7.456353,0.343096,0.001692,-0.041986,-0.330834,0,0,0,0,0,4330
4391,0,1,-0.084566,22.030001,913.130005,913.138794,0,0,0,-87.186745,-45.850018,359.854248,13.322331,-7.691652,7.452405,0.343285,-0.001355,-0.047065,0.065083,0,0,0,0,0,4391
4431,0,1,-0.124721,22.030001,913.190002,913.138794,0,0,0,-87.186783,-45.870129,359.872925,13.325356,-7.693398,7.447901,0.342225,0.000237,-0.055252,0.266158,0,0,0,0,0,4431
4483,0,1,-0.189357,22.030001,913.090027,913.138794,0,0,0,-87.186821,-45.884129,359.886047,13.328063,-7.694961,7.448545,0.342333,-0.005239,-0.053085,0.225336,0,0,0,0,0,4483
4555,0,1,-0.101901,22.02,913.179993,913.138794,0,0,0,-87.186867,-45.895771,359.897034,13.232358,-7.639706,7.384116,0.342036,-0.001964,-0.040398,0.015175,0,0,0,0,0,4555
4613,0,1,0.20849,22.030001,913.109985,913.138794,0,0,0,-87.186905,-45.907013,0.022504,13.027117,-7.521209,7.255295,0.340662,-0.009449,-0.017423,-0.351948,0,0,0,0,0,4613
4663,0,1,-0.044614,22.02,913.190002,913.138794,0,0,0,-87.186943,-45.922085,0.003296,12.820599,-7.401976,7.11217,0.339043,-0.009698,-0.012256,-0.508444,0,0,0,0,0,4663
4723,0,1,0.307359,22.040001,913.099976,913.138794,0,0,0,-87.186981,-45.934429,0.00177,12.660426,-7.309501,6.991295,0.337642,-0.005022,-0.022355,-0.373117,0,0,0,0,0,4723
4774,0,1,0.320005,22.02,913.02002,913.138794,0,0,0,-87.187019,-45.944412,0.001209,12.551491,-7.246607,6.921819,0.336334,-0.010675,-0.022235,0.239714,0,0,0,0,0,4774
4834,0,1,0.470069,22.02,913.039978,913.138794,0,0,0,-87.187019,-45.943439,359.576447,12.492522,-7.212561,6.896719,0.33489,-0.015994,-0.020499,0.709101,0,0,0,0,0,4834
4886,0,1,-0.108691,22.040001,913.119995,913.138794,0,0,0,-87.187019,-45.936253,359.895264,12.429537,-7.176197,6.876879,0.333758,-0.015672,-0.024381,0.970569,0,0,0,0,0,4886
4946,0,1,0.045858,22.02,913.150024,913.138794,0,0,0,-87.187019,-45.921913,359.865051,12.401803,-7.160184,6.870857,0.332598,-0.011418,-0.043572,1.064833,0,0,0,0,0,4946
4998,0,1,0.507732,22.02,913.059998,913.138794,0,0,0,-87.187019,-45.899635,359.845917,12.377157,-7.145955,6.872706,0.330871,-0.011403,-0.050791,0.828867,0,0,0,0,0,4998
5057,0,1,-0.027417,22.040001,913.330017,913.138794,0.06662,0.06662,0,-87.187019,-45.876503,359.836548,12.35578,-7.133613,6.870079,0.329554,-0.014079,-0.054265,0.445082,0,0,0,0,0,5057
5111,0,1,-0.167346,22.030001,913.159973,913.138794,0.06662,0.06662,0,-87.187019,-45.860153,359.831085,12.348708,-7.12953,6.869149,0.329164,-0.00851,-0.032093,-0.245581,0,0,0,0,0,5111
5158,0,1,0.130078,22.030001,913.150024,913.138794,0.06662,0.06662,0,-87.187019,-45.85408,359.828156,12.342907,-7.126181,6.866466,0.32838,-0.003694,-0.031918,-0.536308,0,0,0,0,0,5158
5209,0,1,0.157028,22.040001,913.109985,913.138794,0.06662,0.06662,0,-87.187019,-45.848,359.83194,12.344267,-7.126966,6.858325,0.327256,-0.005956,-0.015295,-0.548534,0,0,0,0,0,5209
5279,0,1,-0.479415,22.030001,913.169983,913.138794,-3.028206,0.06662,-3.028206,-87.187019,-45.841557,359.838898,12.343875,-7.12674,6.853593,0.326373,-0.01183,-0.011953,-0.0558,0,0,0,0,0,5279
5335,0,1,-0.036783,22.030001,913.090027,913.138794,-3.028206,0.06662,-3.028206,-87.187019,-45.83646,359.833527,12.337665,-7.123154,6.850712,0.325977,-0.006298,-0.013966,0.69108,0,0,0,0,0,5335
5390,0,1,-0.05812,22.049999,913.109985,913.138794,-3.028206,0.06662,-3.028206,-87.187019,-45.824451,359.822388,12.327011,-7.117003,6.8517,0.325043,-0.008249,-0.022521,0.923316,0,0,0,0,0,5390
5449,0,1,0.061507,22.040001,913.159973,913.138794,1.885038,1.885038,-3.028206,-87.187019,-45.806717,359.807526,12.317715,-7.111636,6.854961,0.324535,-0.008909,-0.020567,0.468147,0,0,0,0,0,5449
5502,0,1,-0.045372,22.030001,913.070007,913.138794,1.885038,1.885038,-3.028206,-87.187019,-45.802567,359.80661,12.305447,-7.104553,6.855203,0.324061,-0.005269,-0.026637,-2.535224,0,0,0,0,0,5502
5562,0,1,0.07965,22.040001,913.159973,913.138794,1.885038,1.885038,-3.028206,-87.187019,-45.833271,0.146615,12.316657,-7.111025,6.849288,0.323134,-0.009787,-0.011101,-4.306024,0,0,0,0,0,5562
5614,0,1,0.204667,22.040001,913.070007,913.138794,1.885038,1.885038,-3.028206,-87.187019,-45.894711,0.182291,12.33632,-7.122378,6.830358,0.322107,-0.00036,-0.009547,-2.302545,0,0,0,0,0,5614
5673,0,1,-0.291755,22.040001,913.26001,913.138794,-0.530674,1.885038,-3.028206,-87.187019,-45.949501,0.160458,12.350253,-7.130422,6.814964,0.321925,-0.008839,-0.011741,2.541595,0,0,0,0,0,5673
5726,0,1,0.120148,22.040001,913.130005,913.138794,-0.530674,1.885038,-3.028206,-87.187019,-45.957878,332.823456,12.346109,-7.128029,6.824391,0.321754,-0.007925,-0.009607,2.781637,0,0,0,0,0,5726
5784,0,1,0.106223,22.040001,913.169983,913.138794,-0.530674,1.885038,-3.028206,-87.187019,-45.941216,359.886993,12.337347,-7.122971,6.823829,0.321509,-0.010122,-0.001764,0.004455,0,0,0,0,0,5784
5840,0,1,0.571997,22.040001,912.919983,913.138794,2.846895,2.846895,-3.028206,-87.187019,-45.947376,0.191604,12.345111,-7.127453,6.818772,0.32111,-0.011966,0.001092,-2.1455,0,0,0,0,0,5840
5895,0,1,0.307431,22.059999,913.23999,913.138794,2.846895,2.846895,-3.028206,-87.187019,-45.967224,0.066285,12.356849,-7.13423,6.80605,0.321064,-0.006324,-0.001369,-0.664416,0,0,0,0,0,5895
5954,0,1,0.135067,22.040001,913.179993,913.138794,2.846895,2.846895,-3.028206,-87.187019,-45.979038,0.051821,12.359209,-7.135593,6.796183,0.320704,-0.011287,-0.002906,0.956392,0,0,0,0,0,5954
6017,0,1,0.463236,22.040001,912.969971,913.138794,2.846895,2.846895,-3.028206,-87.187019,-45.973301,359.91806,12.34376,-7.126674,6.808171,0.319814,-0.013852,-0.002344,1.336993,0,0,0,0,0,6017
6076,0,1,0.62878,22.040001,912.98999,913.138794,-0.437238,2.846895,-3.028206,-87.187019,-45.962772,359.903259,12.34234,-7.125853,6.810277,0.319511,-0.012452,-0.013689,0.083451,0,0,0,0,0,6076
6128,0,1,0.34715,22.040001,913.070007,913.138794,-0.437238,2.846895,-3.028206,-87.187019,-45.964497,0.018017,12.344605,-7.127162,6.807113,0.319303,-0.010928,-0.007992,-1.362206,0,0,0,0,0,6128
6188,0,1,0.436633,22.02,913.02002,913.138794,-0.437238,2.846895,-3.028206,-87.187019,-45.969009,0.003176,12.355227,-7.133293,6.797518,0.319254,-0.016834,-0.017803,0.092338,0,0,0,0,0,6188
6240,0,1,0.25884,22.059999,913.210022,913.138794,-0.437238,2.846895,-3.028206,-87.187019,-45.968182,337.739227,12.357889,-7.13483,6.797344,0.319137,-0.019272,-0.013392,0.926767,0,0,0,0,0,6240
6299,0,1,0.249516,22.049999,913.140015,913.138794,-1.169006,2.846895,-3.028206,-87.187019,-45.958851,359.871704,12.350389,-7.1305,6.800005,0.318953,-0.020994,-0.01896,1.205073,0,0,0,0,0,6299
6353,0,1,0.053762,22.049999,913.200012,913.138794,-1.169006,2.846895,-3.028206,-87.187019,-45.948948,359.873505,12.339087,-7.123975,6.801314,0.318633,-0.017221,0.000842,-0.482719,0,0,0,0,0,6353
6410,0,1,0.038597,22.049999,913.119995,913.138794,-1.169006,2.846895,-3.028206,-87.187019,-45.947632,27.475311,12.3412,-7.125195,6.802341,0.31868,-0.023747,-0.003444,-0.915931,0,0,0,0,0,6410
6464,0,1,0.006232,22.059999,913.070007,913.138794,-1.121726,2.846895,-3.028206,-87.187019,-45.946571,0.004846,12.354416,-7.132825,6.792382,0.318519,-0.016903,-0.010372,-0.164641,0,0,0,0,0,6464
6521,0,1,0.374046,22.049999,913.070007,913.138794,-1.121726,2.846895,-3.028206,-87.187019,-45.945694,359.920288,12.352491,-7.131714,6.793017,0.318705,-0.020514,-0.00878,0.998596,0,0,0,0,0,6521
6579,0,1,0.411826,22.040001,913.070007,913.138794,-1.121726,2.846895,-3.028206,-87.187019,-45.937901,359.883179,12.345967,-7.127948,6.799793,0.318481,-0.016781,-0.01347,1.124652,0,0,0,0,0,6579
6643,0,1,0.275021,22.059999,913.159973,913.138794,-1.121726,2.846895,-3.028206,-87.187019,-45.929405,359.884338,12.341619,-7.125437,6.80489,0.318411,-0.020126,-0.015389,-0.963059,0,0,0,0,0,6643
6703,0,1,-0.021108,22.040001,913.080017,913.138794,0.332449,2.846895,-3.028206,-87.187019,-45.930183,0.272942,12.342619,-7.126014,6.79875,0.318204,-0.013878,-0.016818,-0.857958,0,0,0,0,0,6703
6755,0,1,0.141651,22.059999,913.090027,913.138794,0.332449,2.846895,-3.028206,-87.187019,-45.930832,72.816978,12.357449,-7.134576,6.793999,0.318067,-0.019242,-0.014129,-0.062596,0,0,0,0,0,6755
6814,0,1,0.107147,22.040001,913.090027,913.138794,0.332449,2.846895,-3.028206,-87.187019,-45.928238,359.891846,12.353932,-7.132546,6.795504,0.317808,-0.019681,-0.01915,1.226163,0,0,0,0,0,6814
6866,0,1,0.294909,22.049999,912.969971,913.138794,0.332449,2.846895,-3.028206,-87.187019,-45.923798,359.881409,12.346601,-7.128313,6.797465,0.317686,-0.02046,-0.014347,0.638672,0,0,0,0,0,6866
6925,0,1,0.429383,22.040001,913.090027,913.138794,1.103129,2.846895,-3.028206,-87.187019,-45.919708,359.883789,12.347163,-7.128638,6.800601,0.317571,-0.017782,-0.003358,-0.538847,0,0,0,0,0,6925
6986,0,1,0.250152,22.059999,913.080017,913.138794,1.103129,2.846895,-3.028206,-87.187019,-45.91597,359.899445,12.349633,-7.130064,6.79474,0.317521,-0.023023,-0.002929,-0.464765,0,0,0,0,0,6986
7036,0,1,-0.05207,22.049999,913.190002,913.138794,1.103129,2.846895,-3.028206,-87.187019,-45.911938,359.904053,12.353326,-7.132196,6.79156,0.317187,-0.023876,0.00242,0.430061,0,0,0,0,0,7036
7090,0,1,0.226415,22.07,913.090027,913.138794,-0.3813,2.846895,-3.028206,-87.187019,-45.904617,359.890717,12.351961,-7.131408,6.796978,0.317452,-0.025325,-0.002588,0.944695,0,0,0,0,0,7090
7147,0,1,-0.030572,22.08,913.140015,913.138794,-0.3813,2.846895,-3.028206,-87.187019,-45.896328,359.87619,12.34553,-7.127695,6.797034,0.317767,-0.021248,-0.005394,-0.01449,0,0,0,0,0,7147
7217,0,1,0.103844,22.059999,913.119995,913.138794,-0.3813,2.846895,-3.028206,-87.187019,-45.890526,359.875977,12.34766,-7.128925,6.796505,0.317549,-0.013225,-0.012921,-0.436899,0,0,0,0,0,7217
7269,0,1,0.283576,22.07,913.099976,913.138794,-0.3813,2.846895,-3.028206,-87.187019,-45.889126,359.875824,12.356134,-7.133818,6.794992,0.317385,-0.022957,-0.021178,-0.106871,0,0,0,0,0,7269
7318,0,1,0.488399,22.07,913.119995,913.138794,0.772936,2.846895,-3.028206,-87.187019,-45.88483,359.872559,12.352882,-7.13194,6.794643,0.317213,-0.023954,-0.013837,0.485328,0,0,0,0,0,7318
7369,0,1,0.121721,22.07,913.130005,913.138794,0.772936,2.846895,-3.028206,-87.187019,-45.873508,359.860474,12.351521,-7.131154,6.797805,0.317179,-0.023961,-0.025416,0.666851,0,0,0,0,0,7369
7440,0,1,0.107065,22.059999,913.109985,913.138794,0.772936,2.846895,-3.028206,-87.187019,-45.85965,359.846954,12.349388,-7.129922,6.799682,0.317104,-0.011234,-0.026325,-0.207974,0,0,0,0,0,7440
7482,0,1,-0.007631,22.08,913.159973,913.138794,0.772936,2.846895,-3.028206,-87.187019,-45.85553,359.843445,12.348637,-7.129489,6.796272,0.317283,-0.011624,-0.020409,-0.503319,0,0,0,0,0,7482
7541,0,1,-0.182333,22.059999,913.200012,913.138794,-2.385874,2.846895,-3.028206,-87.187019,-45.851006,359.839783,12.35229,-7.131598,6.794489,0.317246,-0.011645,-0.009813,0.023196,0,0,0,0,0,7541
7595,0,1,-0.122278,22.07,913.219971,913.138794,-2.385874,2.846895,-3.028206,-87.187019,-45.843098,359.833893,12.35138,-7.131073,6.793903,0.317212,-0.011723,-0.010627,0.601615,0,0,0,0,0,7595
7652,0,1,-0.174631,22.07,913.190002,913.138794,-2.385874,2.846895,-3.028206,-87.187019,-45.833054,359.824432,12.345306,-7.127566,6.795279,0.317122,-0.00912,-0.009015,0.402396,0,0,0,0,0,7652
7704,0,1,-0.404125,22.07,913.320007,913.138794,-1.451077,2.846895,-3.028206,-87.187019,-45.82375,359.817383,12.347509,-7.128838,6.798091,0.317089,-0.008146,-0.015942,-0.401151,0,0,0,0,0,7704
7773,0,1,-0.444948,22.07,913.200012,913.138794,-1.451077,2.846895,-3.028206,-87.187019,-45.822304,359.816772,12.352831,-7.13191,6.795283,0.317015,-0.004575,-0.005323,-0.170262,0,0,0,0,0,7773
7833,0,1,-0.279095,22.059999,913.140015,913.138794,-1.451077,2.846895,-3.028206,-87.187019,-45.816196,359.812622,12.353932,-7.132546,6.79358,0.316822,-0.004239,-0.016354,0.482309,0,0,0,0,0,7833
7884,0,1,0.052378,22.040001,913.099976,913.138794,-1.451077,2.846895,-3.028206,-87.187019,-45.803871,359.806458,12.354331,-7.132776,6.798151,0.317182,0.001143,-0.033418,0.54226,0,0,0,0,0,7884
7944,0,1,0.096429,22.059999,913.099976,913.138794,2.406457,2.846895,-3.028206,-87.187019,-45.795029,359.800903,12.350874,-7.13078,6.798437,0.317205,-0.000186,-0.034254,-0.301034,0,0,0,0,0,7944
7995,0,1,-0.144091,22.07,913.25,913.138794,2.406457,2.846895,-3.028206,-87.187019,-45.790005,359.799652,12.352374,-7.131647,6.794145,0.31717,-0.007395,-0.014874,-0.575868,0,0,0,0,0,7995
8066,0,1,0.150643,22.07,913.200012,913.138794,2.406457,2.846895,-3.028206,-87.187019,-45.784924,359.797607,12.358715,-7.135307,6.790971,0.317368,-0.007532,-0.030433,0.505279,0,0,0,0,0,8066
8128,0,1,0.112597,22.09,913.130005,913.138794,0.20089,2.846895,-3.028206,-87.187019,-45.773941,359.787781,12.357342,-7.134515,6.795128,0.317565,-0.007922,-0.032358,0.803391,0,0,0,0,0,8128
8187,0,1,-0.242807,22.07,913.22998,913.138794,0.20089,2.846895,-3.028206,-87.187019,-45.764374,359.777832,12.352286,-7.131596,6.796097,0.317469,-0.003676,-0.023461,-0.053861,0,0,0,0,0,8187
8250,0,1,-0.177368,22.08,913.22998,913.138794,0.20089,2.846895,-3.028206,-87.187019,-45.761185,359.774506,12.355877,-7.133669,6.79288,0.317441,-0.002232,-0.023695,-0.465525,0,0,0,0,0,8250
8329,0,1,0.312154,22.07,913.109985,913.138794,1.061449,2.846895,-3.028206,-87.187019,-45.755909,359.767731,12.357541,-7.13463,6.790707,0.317538,0.000638,-0.020345,0.749473,0,0,0,0,0,8329
8399,0,1,0.806724,22.07,912.97998,913.138794,1.061449,2.846895,-3.028206,-87.187019,-45.745106,359.759918,12.354471,-7.132857,6.794019,0.317763,0.003024,-0.026862,0.710152,0,0,0,0,0,8399
8450,0,1,0.438706,22.07,913,913.138794,1.061449,2.846895,-3.028206,-87.187019,-45.732212,359.751282,12.349,-7.129698,6.79397,0.317623,-0.00608,-0.027293,-0.142433,0,0,0,0,0,8450
8510,0,1,0.406345,22.059999,913,913.138794,1.061449,2.846895,-3.028206,-87.187019,-45.727226,359.744751,12.353047,-7.132035,6.793322,0.317947,-0.008026,-0.037483,-0.278587,0,0,0,0,0,8510
8562,0,1,0.320806,22.09,913.119995,913.138794,0.66898,2.846895,-3.028206,-87.187019,-45.721573,359.738922,12.357588,-7.134657,6.793561,0.317901,-0.008475,-0.029267,0.184081,0,0,0,0,0,8562
8631,0,1,-0.01112,22.059999,913.030029,913.138794,0.66898,2.846895,-3.028206,-87.187019,-45.708969,359.724548,12.355602,-7.13351,6.796026,0.318124,-0.014838,-0.025844,0.473136,0,0,0,0,0,8631
8692,0,1,-0.184641,22.07,913.179993,913.138794,0.66898,2.846895,-3.028206,-87.187019,-45.697514,359.710938,12.35035,-7.130478,6.796015,0.318028,-0.010381,0.005075,-0.126001,0,0,0,0,0,8692
8762,0,1,-0.006497,22.08,912.97998,913.138794,-4.116823,2.846895,-4.116823,-87.187019,-45.687469,359.704865,12.353569,-7.132336,6.795097,0.318088,-0.00642,0.004615,-0.28302,0,0,0,0,0,8762
8822,0,1,-0.44147,22.09,913.179993,913.138794,-4.116823,2.846895,-4.116823,-87.187019,-45.680202,359.70163,12.357301,-7.134491,6.793577,0.31814,-0.002895,-0.013155,0.157586,0,0,0,0,0,8822
8895,0,1,-0.119723,22.09,913.070007,913.138794,-4.116823,2.846895,-4.116823,-87.187019,-45.671608,359.690308,12.353205,-7.132126,6.794872,0.317852,-0.00795,-0.032541,0.478434,0,0,0,0,0,8895
8964,0,1,-0.049792,22.08,913.049988,913.138794,1.143315,2.846895,-4.116823,-87.187019,-45.665535,359.681854,12.350927,-7.130811,6.794126,0.317616,-0.003116,-0.036398,-0.197496,0,0,0,0,0,8964
9018,0,1,0.313422,22.09,913.099976,913.138794,1.143315,2.846895,-4.116823,-87.187019,-45.66124,359.675751,12.354493,-7.13287,6.793078,0.317525,0.001991,-0.040366,-0.215225,0,0,0,0,0,9018
9095,0,1,-0.035662,22.1,913.169983,913.138794,1.143315,2.846895,-4.116823,-87.187019,-45.654938,359.668396,12.357856,-7.134811,6.792153,0.317263,-0.002079,-0.035105,0.4691,0,0,0,0,0,9095
9176,0,1,0.485379,22.07,913.099976,913.138794,1.181581,2.846895,-4.116823,-87.187019,-45.641869,359.654114,12.354356,-7.132791,6.793897,0.317409,-0.004877,-0.035629,0.342383,0,0,0,0,0,9176
9228,0,1,0.231811,22.09,913.119995,913.138794,1.181581,2.846895,-4.116823,-87.187019,-45.633293,359.643738,12.349079,-7.129744,6.792164,0.317374,-0.010545,-0.040128,-0.118826,0,0,0,0,0,9228
9297,0,1,-0.308201,22.09,913.26001,913.138794,1.181581,2.846895,-4.116823,-87.187019,-45.624054,359.632446,12.351681,-7.131246,6.788705,0.317207,-0.007517,-0.027488,0.002805,0,0,0,0,0,9297
9368,0,1,-0.131657,22.1,913.090027,913.138794,-1.459597,2.846895,-4.116823,-87.187019,-45.614796,359.621155,12.352231,-7.131564,6.789372,0.317154,-0.005773,-0.00905,0.411996,0,0,0,0,0,9368
9418,0,1,-0.627169,22.110001,913.299988,913.138794,-1.459597,2.846895,-4.116823,-87.187019,-45.609142,359.614319,12.351366,-7.131064,6.791448,0.317222,-0.004746,-0.015824,0.295193,0,0,0,0,0,9418
9489,0,1,-0.783808,22.09,913.179993,913.138794,-1.459597,2.846895,-4.116823,-87.187019,-45.604214,359.608398,12.348817,-7.129593,6.791472,0.317049,-0.00401,-0.025626,0.043431,0,0,0,0,0,9489
9551,0,1,-0.44491,22.1,913.22998,913.138794,-1.231614,2.846895,-4.116823,-87.187019,-45.598385,359.601562,12.352268,-7.131585,6.789044,0.317005,-0.00331,-0.034656,0.037901,0,0,0,0,0,9551
9610,0,1,-0.274798,22.09,913.130005,913.138794,-1.231614,2.846895,-4.116823,-87.187019,-45.593616,359.597443,12.354192,-7.132696,6.789681,0.316701,-0.001955,-0.035073,0.245909,0,0,0,0,0,9610
9661,0,1,-0.213514,22.1,913.210022,913.138794,-1.231614,2.846895,-4.116823,-87.187019,-45.584229,359.593903,12.350718,-7.13069,6.78919,0.316685,0.001266,-0.036888,0.226821,0,0,0,0,0,9661
9731,0,1,0.22823,22.08,913.049988,913.138794,-1.231614,2.846895,-4.116823,-87.187019,-45.573681,359.590302,12.349439,-7.129952,6.789381,0.316453,-0.000618,-0.03084,0.026775,0,0,0,0,0,9731
9799,0,1,0.029972,22.1,913.119995,913.138794,3.061536,3.061536,-4.116823,-87.187019,-45.564186,359.58728,12.353398,-7.132238,6.789532,0.316317,0.000869,-0.022217,-0.003915,0,0,0,0,0,9799
9863,0,1,-0.098974,22.1,913.210022,913.138794,3.061536,3.061536,-4.116823,-87.187019,-45.557163,359.585114,12.354314,-7.132766,6.789992,0.316403,-0.010688,-0.010194,0.108567,0,0,0,0,0,9863
9923,0,1,0.521832,22.08,913.070007,913.138794,3.061536,3.061536,-4.116823,-87.187019,-45.549801,359.582886,12.351954,-7.131404,6.790136,0.316365,-0.010725,-0.022703,0.215185,0,0,0,0,0,9923
9999,0,1,0.122203,22.110001,913.150024,913.138794,1.175373,3.061536,-4.116823,-87.187019,-45.542572,359.580658,12.349767,-7.130141,6.789671,0.316207,-0.005133,-0.022468,0.031304,0,0,0,0,0,9999
10055,0,1,-0.086196,22.110001,913.27002,913.138794,1.175373,3.061536,-4.116823,-87.187019,-45.5382,359.579315,12.351221,-7.130981,6.788599,0.315929,-0.003295,-0.005886,-0.015602,0,0,0,0,0,10055
10125,0,1,-0.303957,22.120001,913.25,913.138794,1.175373,3.061536,-4.116823,-87.187019,-45.533703,359.577881,12.351557,-7.131175,6.789398,0.31595,-0.008429,-0.01234,0.100277,0,0,0,0,0,10125
10189,0,1,0.025553,22.09,913.070007,913.138794,-4.003049,3.061536,-4.116823,-87.187019,-45.5299,359.57663,12.345364,-7.127599,6.788571,0.315834,-0.010044,-0.035828,0.036129,0,0,0,0,0,10189
10246,0,1,0.136304,22.1,913.080017,913.138794,-4.003049,3.061536,-4.116823,-87.187019,-45.531754,359.575714,12.352167,-7.131527,6.78615,0.315928,-0.00772,-0.031538,-0.185527,0,0,0,0,0,10246
10300,0,1,-0.215523,22.1,913.190002,913.138794,-4.003049,3.061536,-4.116823,-87.187019,-45.533337,359.57489,12.351753,-7.131288,6.781969,0.315705,-0.004533,-0.044504,0.065185,0,0,0,0,0,10300
10367,0,1,-0.060989,22.09,913.150024,913.138794,1.695754,3.061536,-4.116823,-87.187218,-45.526623,359.567535,12.354061,-7.13262,6.786213,0.315821,-0.014824,-0.043343,0.988574,0,0,0,0,0,10367
10437,0,1,0.226365,22.110001,913,913.138794,1.695754,3.061536,-4.116823,-87.187874,-45.51186,359.552856,12.349895,-7.130216,6.790142,0.315854,-0.010653,-0.042754,1.141339,0,0,0,0,0,10437
10489,0,1,0.042678,22.129999,913.150024,913.138794,1.695754,3.061536,-4.116823,-87.188484,-45.497013,359.536011,12.338163,-7.123442,6.788903,0.315579,-0.005817,-0.034104,0.713087,0,0,0,0,0,10489
10559,0,1,0.01812,22.110001,913.109985,913.138794,0.357954,3.061536,-4.116823,-87.189285,-45.479538,359.514038,12.337394,-7.122998,6.793857,0.31547,-0.007297,-0.011992,-0.185379,0,0,0,0,0,10559
10623,0,1,-0.123974,22.120001,913.140015,913.138794,0.357954,3.061536,-4.116823,-87.190178,-45.47023,359.499329,12.339563,-7.12425,6.796488,0.315503,-0.014097,-0.037752,-0.809968,0,0,0,0,0,10623
10690,0,1,-0.333077,22.110001,913.23999,913.138794,0.357954,3.061536,-4.116823,-87.190308,-45.470856,359.497864,12.340911,-7.125028,6.793708,0.315423,-0.017745,-0.012839,-0.727243,0,0,0,0,0,10690
10748,0,1,0.079488,22.1,913.22998,913.138794,0.357954,3.061536,-4.116823,-87.190598,-45.471893,359.496765,12.341386,-7.125302,6.791767,0.315231,-0.019337,-0.002221,0.350258,0,0,0,0,0,10748
10811,0,1,-0.360124,22.139999,913.26001,913.138794,1.395067,3.061536,-4.116823,-87.191628,-45.462086,359.485138,12.343759,-7.126672,6.793722,0.315404,-0.015979,0.011934,1.065224,0,0,0,0,0,10811
10871,0,1,0.075513,22.1,913.109985,913.138794,1.395067,3.061536,-4.116823,-87.192566,-45.446255,359.467773,12.341703,-7.125486,6.796121,0.315373,-0.01687,-0.001498,1.255813,0,0,0,0,0,10871
10922,0,1,-0.128415,22.120001,913.200012,913.138794,1.395067,3.061536,-4.116823,-87.193573,-45.420166,359.437683,12.334372,-7.121253,6.795674,0.315121,-0.015244,-0.00565,1.074314,0,0,0,0,0,10922
11003,0,1,0.264222,22.120001,913.049988,913.138794,0.133096,3.061536,-4.116823,-87.195107,-45.383858,359.395203,12.327662,-7.117379,6.802393,0.315139,-0.006107,-0.014143,0.453487,0,0,0,0,0,11003
11055,0,1,0.063505,22.1,913.25,913.138794,0.133096,3.061536,-4.116823,-87.196281,-45.36087,359.368439,12.329111,-7.118216,6.807665,0.315246,-0.008071,-0.022266,-0.412406,0,0,0,0,0,11055
11124,0,1,0.039292,22.110001,913.150024,913.138794,0.133096,3.061536,-4.116823,-87.197784,-45.35355,359.363373,12.3301,-7.118787,6.810223,0.315371,-0.014575,-0.017402,-1.057245,0,0,0,0,0,11124
11182,0,1,0.001845,22.120001,913.159973,913.138794,-1.531294,3.061536,-4.116823,-87.199104,-45.358677,359.369049,12.324546,-7.11558,6.806332,0.315474,-0.006914,-0.013099,-1.019779,0,0,0,0,0,11182
11256,0,1,0.302013,22.129999,913.130005,913.138794,-1.531294,3.061536,-4.116823,-87.200684,-45.373905,359.388275,12.325914,-7.11637,6.804733,0.315654,-0.000718,-0.012356,-0.9211,0,0,0,0,0,11256
11315,0,1,0.20475,22.139999,913.159973,913.138794,-1.531294,3.061536,-4.116823,-87.200302,-45.382679,359.405151,12.334213,-7.121161,6.80433,0.315749,0.002119,-0.008226,-0.564983,0,0,0,0,0,11315
11377,0,1,-0.532675,22.129999,913.280029,913.138794,-1.531294,3.061536,-4.116823,-87.199875,-45.391262,359.422272,12.33705,-7.122799,6.802726,0.315774,-0.007469,-0.007094,-0.137391,0,0,0,0,0,11377
11447,0,1,0.407751,22.120001,913.109985,913.138794,-0.504973,3.061536,-4.116823,-87.20089,-45.398117,359.428467,12.333064,-7.120498,6.80075,0.315753,-0.008151,0.008409,0.343385,0,0,0,0,0,11447
11501,0,1,0.25506,22.129999,913.169983,913.138794,-0.504973,3.061536,-4.116823,-87.20237,-45.402779,359.429657,12.333996,-7.121036,6.802979,0.315888,-0.015904,0.018712,0.182323,0,0,0,0,0,11501
11568,0,1,0.257849,22.129999,913.090027,913.138794,-0.504973,3.061536,-4.116823,-87.204201,-45.407379,359.430725,12.337531,-7.123077,6.804628,0.316214,-0.022222,0.017644,-0.085691,0,0,0,0,0,11568
11638,0,1,-0.138857,22.129999,913.130005,913.138794,1.779283,3.061536,-4.116823,-87.204353,-45.416611,359.438202,12.333496,-7.120747,6.802632,0.316444,-0.031089,0.003218,-0.706778,0,0,0,0,0,11638
11689,0,1,0.149031,22.129999,913.150024,913.138794,1.779283,3.061536,-4.116823,-87.203781,-45.425838,359.444763,12.3371,-7.122828,6.79615,0.316565,-0.022709,-0.003439,-0.13882,0,0,0,0,0,11689
11749,0,1,0.600099,22.120001,913.080017,913.138794,1.779283,3.061536,-4.116823,-87.203232,-45.434216,359.450562,12.343852,-7.126726,6.797093,0.316683,-0.026037,0.006314,0.13475,0,0,0,0,0,11749
11811,0,1,0.137446,22.15,913.309998,913.138794,2.606256,3.061536,-4.116823,-87.202591,-45.443066,359.456696,12.337128,-7.122844,6.800658,0.316509,-0.023678,0.002562,0.373717,0,0,0,0,0,11811
11891,0,1,0.418512,22.139999,913.080017,913.138794,2.606256,3.061536,-4.116823,-87.201897,-45.456196,359.468018,12.336815,-7.122663,6.800341,0.316529,-0.032905,0.017391,-0.46085,0,0,0,0,0,11891
11949,0,1,0.411137,22.139999,913.109985,913.138794,2.606256,3.061536,-4.116823,-87.201424,-45.468914,359.478302,12.336882,-7.122702,6.795504,0.316253,-0.027514,0.008681,0.071955,0,0,0,0,0,11949
12002,0,1,0.331542,22.15,913.080017,913.138794,-2.490901,3.061536,-4.116823,-87.200966,-45.475727,359.487823,12.340155,-7.124591,6.796529,0.316512,-0.030253,0.00408,0.290548,0,0,0,0,0,12002
12073,0,1,0.129629,22.120001,913.130005,913.138794,-2.490901,3.061536,-4.116823,-87.200439,-45.479038,359.498047,12.336721,-7.12261,6.797198,0.316561,-0.02891,0.004965,0.262588,0,0,0,0,0,12073
12135,0,1,0.117827,22.15,913.22998,913.138794,-2.490901,3.061536,-4.116823,-87.199936,-45.481663,359.506866,12.333626,-7.120822,6.793621,0.316474,-0.02356,0.010931,0.128946,0,0,0,0,0,12135
12204,0,1,-0.105188,22.16,913.27002,913.138794,-0.789438,3.061536,-4.116823,-87.199547,-45.48991,359.513184,12.334239,-7.121176,6.793891,0.316236,-0.026679,0.028133,0.014517,0,0,0,0,0,12204
12272,0,1,-0.177613,22.15,913.179993,913.138794,-0.789438,3.061536,-4.116823,-87.199013,-45.500355,359.52066,12.343793,-7.126692,6.794538,0.316357,-0.027833,0.018555,0.208936,0,0,0,0,0,12272
12325,0,1,0.159077,22.16,913.049988,913.138794,-0.789438,3.061536,-4.116823,-87.198662,-45.500317,359.521088,12.341866,-7.125579,6.793717,0.316261,-0.037167,-0.004323,0.505632,0,0,0,0,0,12325
12376,0,1,0.027222,22.139999,913.150024,913.138794,-0.789438,3.061536,-4.116823,-87.199493,-45.496746,359.517731,12.334833,-7.121519,6.792415,0.316303,-0.042843,-0.003818,1.340001,0,0,0,0,0,12376
12446,0,1,0.1759,22.139999,913.179993,913.138794,-0.29424,3.061536,-4.116823,-87.201485,-45.474094,359.490845,12.305107,-7.104357,6.80705,0.31636,-0.028149,-0.009274,3.222747,0,0,0,0,0,12446
12508,0,1,-0.26824,22.17,913.210022,913.138794,-0.29424,3.061536,-4.116823,-87.203529,-45.432819,359.443085,12.283982,-7.09216,6.832627,0.315792,-0.030379,-0.03617,-4.403207,0,0,0,0,0,12508
12568,0,1,-0.049681,22.16,913.140015,913.138794,-0.29424,3.061536,-4.116823,-87.2043,-45.481613,359.496796,12.246059,-7.070266,6.839038,0.316378,-0.032775,0.042289,-12.168355,0,0,0,0,0,12568
12639,0,1,0.179741,22.16,913.140015,913.138794,0.839232,3.061536,-4.116823,-87.203552,-45.736622,0.256657,12.485536,-7.208528,6.675719,0.31611,-0.021307,0.061554,1.685678,0,0,0,0,0,12639
12710,0,1,0.114381,22.16,913.200012,913.138794,0.839232,3.061536,-4.116823,-87.204712,-45.742596,359.388824,12.514892,-7.225476,6.752778,0.316179,-0.035886,-0.03276,15.192817,0,0,0,0,0,12710
12770,0,1,0.460526,22.129999,913.039978,913.138794,0.839232,3.061536,-4.116823,-87.206467,-45.345871,358.964844,12.383578,-7.149662,6.81558,0.31618,-0.0282,-0.081127,11.677448,0,0,0,0,0,12770
12829,0,1,0.181675,22.129999,913.059998,913.138794,-0.739358,3.061536,-4.116823,-87.210976,-44.818878,358.665802,12.225665,-7.058491,6.903569,0.316063,-0.027229,-0.069912,2.985662,0,0,0,0,0,12829
12909,0,1,-0.25009,22.15,913.130005,913.138794,-0.739358,3.061536,-4.116823,-87.218018,-44.600838,358.560181,12.133219,-7.005117,6.97916,0.316169,-0.023982,-0.037238,-3.476511,0,0,0,0,0,12909
12951,0,1,0.239345,22.15,913.070007,913.138794,-0.739358,3.061536,-4.116823,-87.219437,-44.661392,358.627594,12.077639,-6.973028,6.980142,0.315891,-0.03197,-0.03344,-6.727857,0,0,0,0,0,12951
13003,0,1,0.261937,22.16,913.219971,913.138794,-0.739358,3.061536,-4.116823,-87.221123,-44.856014,358.830872,12.119318,-6.997092,6.951238,0.316323,-0.04037,-0.010665,-9.128079,0,0,0,0,0,13003
13072,0,1,-0.045716,22.16,913.070007,913.138794,-0.402188,3.061536,-4.116823,-87.223022,-45.36768,359.349091,12.229007,-7.060421,6.905413,0.316584,-0.038822,0.001944,-7.600601,0,0,0,0,0,13072
13143,0,1,-0.037219,22.16,913.26001,913.138794,-0.402188,3.061536,-4.116823,-87.22345,-45.726391,359.837311,12.383762,-7.149768,6.775796,0.316402,-0.041585,-0.017903,4.158135,0,0,0,0,0,13143
13195,0,1,0.181872,22.17,913.109985,913.138794,-0.402188,3.061536,-4.116823,-87.224907,-45.70813,359.716919,12.371057,-7.142433,6.785515,0.316389,-0.066931,-0.031873,6.745491,0,0,0,0,0,13195
13284,0,1,-0.745597,22.190001,913.330017,913.138794,0.707564,3.061536,-4.116823,-87.227043,-45.443649,359.381836,12.277,-7.08813,6.827507,0.316491,-0.048618,-0.024911,2.794108,0,0,0,0,0,13284
13355,0,1,-0.181177,22.17,913.159973,913.138794,0.707564,3.061536,-4.116823,-87.228737,-45.309166,359.273895,12.216731,-7.053333,6.859927,0.316639,-0.033658,-0.022076,-3.250696,0,0,0,0,0,13355
13406,0,1,-0.25059,22.190001,913.26001,913.138794,0.707564,3.061536,-4.116823,-87.229851,-45.356174,359.328583,12.230398,-7.061224,6.872214,0.316618,-0.051229,0.015973,-7.081665,0,0,0,0,0,13406
13466,0,1,-0.362305,22.18,913.190002,913.138794,-0.451492,3.061536,-4.116823,-87.230446,-45.60965,24.035461,12.364182,-7.138464,6.794388,0.314752,-0.504141,0.78019,-9.768266,0,0,0,0,0,13466
13534,0,1,0.014671,22.18,913.02002,913.138794,-0.451492,3.061536,-4.116823,-87.231636,-45.941677,0.090863,12.547668,-7.2444,6.700269,0.312911,-0.256286,0.550591,3.467021,0,0,0,0,0,13534
13587,0,1,0.153622,22.190001,913.119995,913.138794,-0.451492,3.061536,-4.116823,-87.235168,-45.97094,359.808563,12.492649,-7.212634,6.745778,0.311879,-0.316776,0.196473,4.478973,0,0,0,0,0,13587
13632,0,1,0.045709,22.17,913.109985,913.138794,-0.020836,3.061536,-4.116823,-87.238617,-45.944244,359.749146,12.415105,-7.167864,6.808731,0.312071,-0.300703,0.034824,2.185777,0,0,0,0,0,13632
13698,0,1,-0.489873,22.209999,913.219971,913.138794,-0.020836,3.061536,-4.116823,-87.243874,-45.95298,359.794312,12.391757,-7.154384,6.798988,0.31148,-0.123292,0.07785,-4.599856,0,0,0,0,0,13698
