Time,pkg_no,fs,sf,Altitude,Velocity,Accel_Z,Yaw,Pitch,Roll,UTC,LTC_lat,LTC_lng,CTC_lat,CTC_lng,thrust,S1,S2,S3,S4,Rkt_mx,Pld_mx,Temp,Pressure,Accel_Abs215450,1282,0,195,3.914045,-2.379919,-9.850739,-171.275436,0.358885,84.251526,5584000.00,38.402256,33.704597,0.000000,0.000000,0.000001,0.000001,0.000001,0.000001,0.000001,0,0,0,0
215775,1284,0,95,3.857394,1.890874,-9.850485,-171.281784,0.361859,84.251381,5584000.00,38.402256,33.704597,0.000000,0.000000,0.000000,0.000000,0.000000,0.000000,0.000000,0,0,0,0
215948,1285,0,106,4.523503,3.587726,-9.851249,-171.286926,0.363973,84.251244,5584000.00,38.402256,33.704597,0.000000,0.000000,0.000000,0.000000,0.000000,0.000000,0.000000,0,0,0,0
216121,1286,0,138,4.364585,-1.106282,-9.851037,-171.291183,0.365602,84.251106,5584000.00,38.402256,33.704597,0.000000,0.000000,0.000001,0.000001,0.000001,0.000001,0.000001,0,0,0,0
216294,1287,0,124,3.996343,-1.871123,-9.850448,-171.294800,0.366945,84.250961,5584000.00,38.402256,33.704597,0.000000,0.000000,0.000000,0.000000,0.000000,0.000000,0.000000,0,0,0,0
216452,1288,0,98,4.234896,0.903040,-9.851645,-171.294800,0.366945,84.250961,5584000.00,38.402256,33.704597,0.000000,0.000000,0.000000,0.000000,0.000000,0.000000,0.000000,0,0,0,0
216788,1290,0,181,4.458365,-1.160665,-9.848744,-171.299683,0.368772,84.250916,5584000.00,38.402256,33.704597,0.000000,0.000000,0.000001,0.000001,0.000001,0.000001,0.000001,0,0,0,0
216962,1291,0,228,4.392688,2.188756,-9.849011,-171.301346,0.369410,84.251129,5585100.00,38.402256,33.704597,0.000000,0.000000,0.000001,0.000001,0.000001,0.000001,0.000001,0,0,0,0
217135,1292,0,14,3.905313,-0.339327,-9.848622,-171.302856,0.370006,84.255836,5585100.00,38.402256,33.704597,0.000000,0.000000,0.000001,0.000001,0.000001,0.000001,0.000001,0,0,0,0
217304,1293,0,249,4.939793,2.799195,-9.847611,-171.303940,0.370454,84.261009,5585100.00,38.402256,33.704597,0.000000,0.000000,0.000001,0.000001,0.000001,0.000001,0.000001,0,0,0,0
217630,1295,0,54,3.380995,-4.406603,-9.848179,-171.304962,0.370880,84.267487,5585100.00,38.402256,33.704597,0.000000,0.000000,0.000001,0.000001,0.000001,0.000001,0.000001,0,0,0,0
217802,1296,0,68,3.712713,-0.820031,-9.847931,-171.305786,0.371224,84.273781,5585100.00,38.402256,33.704597,0.000000,0.000000,0.000000,0.000000,0.000000,0.000000,0.000000,0,0,0,0
217976,1297,0,186,4.774712,5.175318,-9.847928,-171.306427,0.371522,84.279739,5585200.00,38.402256,33.704597,0.000000,0.000000,0.000001,0.000001,0.000001,0.000001,0.000001,0,0,0,0
218149,1298,0,180,3.932724,-4.302704,-9.848518,-171.306976,0.371783,84.285019,5585200.00,38.402256,33.704597,0.000000,0.000000,0.000001,0.000001,0.000001,0.000001,0.000001,0,0,0,0
218307,1299,0,209,3.442468,0.882394,-9.848645,-171.306976,0.371783,84.285019,5585200.00,38.402256,33.704597,0.000000,0.000000,0.000001,0.000001,0.000001,0.000001,0.000001,0,0,0,0
218644,1301,0,227,4.444116,-2.619045,-9.849466,-171.307953,0.372214,84.293152,5585200.00,38.402256,33.704597,0.000000,0.000000,0.000000,0.000000,0.000000,0.000000,0.000000,0,0,0,0
218816,1302,0,234,3.792752,2.529280,-9.849731,-171.308243,0.372393,84.289360,5585200.00,38.402256,33.704597,0.000000,0.000000,0.000000,0.000000,0.000000,0.000000,0.000000,0,0,0,0
218989,1303,0,132,4.086001,-5.392643,-9.850271,-171.308517,0.372555,84.282661,5585300.00,38.402256,33.704597,0.000000,0.000000,0.000000,0.000000,0.000000,0.000000,0.000000,0,0,0,0
219151,1304,0,195,4.128613,5.329878,-9.851008,-171.308792,0.372699,84.282661,5585300.00,38.402256,33.704597,0.000000,0.000000,0.000000,0.000000,0.000000,0.000000,0.000000,0,0,0,0
219312,1305,0,195,4.128613,5.329878,-9.851008,-171.308792,0.372699,84.276947,5585300.00,38.402256,33.704597,0.000000,0.000000,0.000001,0.000001,0.000001,0.000001,0.000001,0,0,0,0
219486,1306,0,63,3.684191,-2.810285,-9.850558,-171.309067,0.372828,84.272270,5585300.00,38.402256,33.704597,0.000000,0.000000,0.000000,0.000000,0.000000,0.000000,0.000000,0,0,0,0
219658,1307,0,22,4.248221,-1.077559,-9.851189,-171.309372,0.372958,84.256851,5585300.00,38.402256,33.704597,0.000000,0.000000,0.000000,0.000000,0.000000,0.000000,0.000000,0,0,0,0
219830,1308,0,209,4.151571,0.201964,-9.851332,-171.309647,0.373065,84.240776,5585300.00,38.402256,33.704597,0.000000,0.000000,0.000001,0.000001,0.000001,0.000001,0.000001,0,0,0,0
220004,1309,0,56,3.582565,-1.783434,-9.851327,-171.309921,0.373162,84.227493,5585400.00,38.402256,33.704597,0.000000,0.000000,0.000000,0.000000,0.000000,0.000000,0.000000,0,0,0,0
220162,1310,0,32,4.376351,2.918160,-9.851847,-171.309921,0.373162,84.227493,5585400.00,38.402256,33.704597,0.000000,0.000000,0.000000,0.000000,0.000000,0.000000,0.000000,0,0,0,0
220498,1312,0,109,4.664145,-1.818575,-9.852239,-171.310211,0.373330,84.210640,5585400.00,38.402256,33.704597,0.000000,0.000000,0.000000,0.000000,0.000000,0.000000,0.000000,0,0,0,0
220669,1313,0,193,4.682295,5.823689,-9.851456,-171.310211,0.373405,84.205681,5585400.00,38.402256,33.704597,0.000000,0.000000,0.000000,0.000000,0.000000,0.000000,0.000000,0,0,0,0
220840,1314,0,3,4.237140,2.925639,-9.852847,-171.310211,0.373474,84.198463,5585400.00,38.402256,33.704597,0.000000,0.000000,0.000000,0.000000,0.000000,0.000000,0.000000,0,0,0,0
221006,1315,0,79,3.514766,-5.061841,-9.852334,-171.310211,0.373535,84.191399,5585500.00,38.402256,33.704597,0.000000,0.000000,0.000001,0.000000,0.000000,0.000000,0.000000,0,0,0,0
221162,1316,0,79,3.514766,-5.061841,-9.852334,-171.310211,0.373535,84.191399,5585500.00,38.402256,33.704597,0.000000,0.000000,0.000001,0.000001,0.000001,0.000001,0.000001,0,0,0,0
221335,1317,0,171,4.577534,-1.392627,-9.852164,-171.310211,0.373598,84.190643,5585500.00,38.402256,33.704597,0.000000,0.000000,0.000000,0.000000,0.000000,0.000000,0.000000,0,0,0,0
221506,1318,0,183,4.283762,2.204173,-9.852218,-171.310211,0.373656,84.190125,5585500.00,38.402256,33.704597,0.000000,0.000000,0.000001,0.000001,0.000001,0.000001,0.000001,0,0,0,0
221678,1319,0,99,4.634857,-0.808628,-9.852855,-171.310211,0.373710,84.186737,5585500.00,38.402256,33.704597,0.000000,0.000000,0.000001,0.000001,0.000001,0.000001,0.000001,0,0,0,0
222000,1321,0,175,3.935383,-0.980192,-9.853114,-171.310211,0.373758,84.182327,5585500.00,38.402256,33.704597,0.000000,0.000000,0.000001,0.000001,0.000001,0.000001,0.000001,0,0,0,0
222172,1322,0,255,4.109780,2.127541,-9.853234,-171.310211,0.373803,84.172943,5585500.00,38.402256,33.704597,0.000000,0.000000,0.000000,0.000000,0.000000,0.000000,0.000000,0,0,0,0
222346,1323,0,111,4.758628,-2.090344,-9.852441,-171.310211,0.373845,84.164101,5585500.00,38.402256,33.704597,0.000000,0.000000,0.000000,0.000000,0.000000,0.000000,0.000000,0,0,0,0
222518,1324,0,147,4.010247,1.308352,-9.852609,-171.310211,0.373882,84.156921,5585500.00,38.402256,33.704597,0.000000,0.000000,0.000000,0.000000,0.000000,0.000000,0.000000,0,0,0,0
222691,1325,0,179,4.411520,-1.149228,-9.851714,-171.310211,0.373921,84.150436,5585500.00,38.402256,33.704597,0.000000,0.000000,0.000001,0.000001,0.000001,0.000001,0.000001,0,0,0,0
222849,1326,0,197,3.703718,3.015587,-9.851964,-171.310211,0.373921,84.150436,5585500.00,38.402256,33.704597,0.000000,0.000000,0.000001,0.000001,0.000001,0.000001,0.000001,0,0,0,0
223187,1328,0,149,4.166979,-1.789948,-9.852544,-171.310211,0.373993,84.141670,5585500.00,38.402256,33.704597,0.000000,0.000000,0.000000,0.000000,0.000000,0.000000,0.000000,0,0,0,0
223360,1329,0,145,4.431370,-2.587349,-9.852940,-171.310211,0.374026,84.138786,5585500.00,38.402256,33.704597,0.000000,0.000000,0.000001,0.000001,0.000001,0.000001,0.000001,0,0,0,0
223532,1330,0,197,4.448205,3.012008,-9.853196,-171.310211,0.374058,84.136482,5585500.00,38.402256,33.704597,0.000000,0.000000,0.000000,0.000000,0.000000,0.000000,0.000000,0,0,0,0
223705,1331,0,165,3.831760,-0.131635,-9.853360,-171.310211,0.374087,84.134781,5585500.00,38.402256,33.704597,0.000000,0.000000,0.000000,0.000000,0.000000,0.000000,0.000000,0,0,0,0
223863,1332,0,171,3.755392,-2.779135,-9.853508,-171.310211,0.374087,84.134781,5585500.00,38.402256,33.704597,0.000000,0.000000,0.000000,0.000000,0.000000,0.000000,0.000000,0,0,0,0
224202,1334,0,213,3.752804,2.517125,-9.854012,-171.310211,0.374142,84.132317,5585500.00,38.402256,33.704597,0.000000,0.000000,0.000001,0.000001,0.000001,0.000001,0.000001,0,0,0,0
224374,1335,0,231,4.432201,0.331881,-9.853905,-171.310211,0.374166,84.131454,5585500.00,38.402256,33.704597,0.000000,0.000000,0.000000,0.000000,0.000000,0.000000,0.000000,0,0,0,0
224548,1336,0,193,4.579217,-1.548606,-9.854353,-171.310211,0.374192,84.130676,5585500.00,38.402256,33.704597,0.000000,0.000000,0.000001,0.000001,0.000001,0.000001,0.000001,0,0,0,0
224720,1337,0,245,4.559482,1.551703,-9.854465,-171.310211,0.374214,84.130096,5585500.00,38.402256,33.704597,0.000000,0.000000,0.000001,0.000001,0.000001,0.000001,0.000001,0,0,0,0
224878,1338,0,237,3.739248,1.513908,-9.854448,-171.310211,0.374214,84.130096,5585500.00,38.402256,33.704597,0.000000,0.000000,0.000001,0.000001,0.000001,0.000001,0.000001,0,0,0,0
225216,1340,0,199,4.754098,-1.715914,-9.853966,-171.310211,0.374255,84.129189,5585500.00,38.402256,33.704597,0.000000,0.000000,0.000001,0.000001,0.000001,0.000001,0.000001,0,0,0,0
225389,1341,0,59,4.365737,-3.836877,-9.853919,-171.310211,0.374275,84.133614,5585500.00,38.402256,33.704597,0.000000,0.000000,0.000000,0.000000,0.000000,0.000000,0.000000,0,0,0,0
225561,1342,0,17,4.701796,4.028602,-9.852124,-171.310211,0.374293,84.138145,5585500.00,38.402256,33.704597,0.000000,0.000000,0.000001,0.000001,0.000001,0.000001,0.000001,0,0,0,0
225729,1343,0,179,5.014639,-3.929166,-9.852986,-171.310211,0.374309,84.140007,5585500.00,38.402256,33.704597,0.000000,0.000000,0.000001,0.000001,0.000001,0.000001,0.000001,0,0,0,0
226230,1346,0,223,5.233568,0.427235,-9.851304,-171.310211,0.374342,84.137665,5585500.00,38.402256,33.704597,0.000000,0.000000,0.000001,0.000001,0.000001,0.000001,0.000001,0,0,0,0
226403,1347,0,43,3.919779,0.579747,-9.851089,-171.310211,0.374356,84.136192,5585500.00,38.402256,33.704597,0.000000,0.000000,0.000000,0.000000,0.000000,0.000000,0.000000,0,0,0,0
226577,1348,0,45,4.843505,-2.030900,-9.851548,-171.310211,0.374371,84.134819,5585500.00,38.402256,33.704597,0.000000,0.000000,0.000001,0.000001,0.000001,0.000001,0.000001,0,0,0,0
226900,1350,0,75,3.229825,-0.072160,-9.851703,-171.310211,0.374385,84.133690,5585500.00,38.402256,33.704597,0.000000,0.000000,0.000000,0.000000,0.000000,0.000000,0.000000,0,0,0,0
227073,1351,0,17,3.924111,-1.063730,-9.851479,-171.310211,0.374397,84.127304,5585500.00,38.402256,33.704597,0.000000,0.000000,0.000000,0.000000,0.000000,0.000000,0.000000,0,0,0,0
227245,1352,0,89,4.226303,0.298421,-9.851443,-171.310211,0.374409,84.117676,5585500.00,38.402256,33.704597,0.000000,0.000000,0.000001,0.000001,0.000001,0.000001,0.000001,0,0,0,0
227419,1353,0,101,3.246037,-0.893615,-9.851076,-171.310211,0.374422,84.107391,5585500.00,38.402256,33.704597,0.000000,0.000000,0.000000,0.000000,0.000000,0.000000,0.000000,0,0,0,0
227581,1354,0,227,3.564151,-0.563850,-9.851748,-171.310211,0.374433,84.107391,5585500.00,38.402256,33.704597,0.000000,0.000000,0.000000,0.000000,0.000000,0.000000,0.000000,0,0,0,0
227913,1356,0,205,4.140986,0.002212,-9.850965,-171.310211,0.374445,84.091110,5585500.00,38.402256,33.704597,0.000000,0.000000,0.000000,0.000000,0.000000,0.000000,0.000000,0,0,0,0
228087,1357,0,249,3.882583,-1.236380,-9.851770,-171.310211,0.374457,84.085007,5585500.00,38.402256,33.704597,0.000000,0.000000,0.000001,0.000001,0.000001,0.000001,0.000001,0,0,0,0
228259,1358,0,119,4.461944,2.745783,-9.852061,-171.310211,0.374469,84.080460,5585500.00,38.402256,33.704597,0.000000,0.000000,0.000000,0.000000,0.000000,0.000000,0.000000,0,0,0,0
228424,1359,0,81,3.128815,-5.755238,-9.852383,-171.310211,0.374478,84.077522,5585500.00,38.402256,33.704597,0.000000,0.000000,0.000000,0.000000,0.000000,0.000000,0.000000,0,0,0,0
228583,1360,0,81,3.128815,-5.755238,-9.852383,-171.310211,0.374478,84.077522,5585500.00,38.402256,33.704597,0.000000,0.000000,0.000000,0.000000,0.000000,0.000000,0.000000,0,0,0,0
228755,1361,0,133,4.039726,4.231752,-9.851760,-171.310211,0.374488,84.075111,5585500.00,38.402256,33.704597,0.000000,0.000000,0.000000,0.000000,0.000000,0.000000,0.000000,0,0,0,0
228928,1362,0,203,4.346737,-1.043068,-9.851977,-171.310211,0.374497,84.073151,5585500.00,38.402256,33.704597,0.000000,0.000000,0.000000,0.000000,0.000000,0.000000,0.000000,0,0,0,0
229100,1363,0,211,4.158153,0.747761,-9.851628,-171.310211,0.374506,84.071678,5585500.00,38.402256,33.704597,0.000000,0.000000,0.000001,0.000001,0.000001,0.000001,0.000001,0,0,0,0
229271,1364,0,177,4.223834,5.677547,-9.852289,-171.310211,0.374515,84.070511,5585500.00,38.402256,33.704597,0.000000,0.000000,0.000000,0.000000,0.000000,0.000000,0.000000,0,0,0,0
229595,1366,0,115,3.957994,-0.808127,-9.852539,-171.310211,0.374523,84.069565,5585500.00,38.402256,33.704597,0.000000,0.000000,0.000001,0.000001,0.000001,0.000001,0.000001,0,0,0,0
229767,1367,0,187,3.731297,-4.972477,-9.852894,-171.310211,0.374531,84.068825,5585500.00,38.402256,33.704597,0.000000,0.000000,0.000001,0.000001,0.000001,0.000001,0.000001,0,0,0,0
229940,1368,0,243,4.090147,-0.193485,-9.853697,-171.310211,0.374539,84.064590,5585500.00,38.402256,33.704597,0.000000,0.000000,0.000000,0.000000,0.000000,0.000000,0.000000,0,0,0,0
230111,1369,0,249,3.603720,0.969808,-9.853751,-171.310211,0.374547,84.064293,5585500.00,38.402256,33.704597,0.000000,0.000000,0.000000,0.000000,0.000000,0.000000,0.000000,0,0,0,0
230607,1372,0,1,3.925138,-4.111377,-9.853507,-171.310211,0.372807,84.053688,5585500.00,38.402256,33.704597,0.000000,0.000000,0.000001,0.000001,0.000001,0.000001,0.000001,0,0,0,0
230780,1373,0,17,4.609966,2.658846,-9.853830,-171.310211,0.370846,84.045448,5585500.00,38.402256,33.704597,0.000000,0.000000,0.000001,0.000001,0.000001,0.000001,0.000001,0,0,0,0
230953,1374,0,25,4.788095,2.000266,-9.853580,-171.310211,0.368174,84.037613,5590500.00,38.402256,33.704597,0.000000,0.000000,0.000000,0.000000,0.000000,0.000000,0.000000,0,0,0,0
231116,1375,0,7,4.686669,-0.642235,-9.853752,-171.310211,0.364489,84.030418,5590500.00,38.402256,33.704597,0.000000,0.000000,0.000000,0.000000,0.000000,0.000000,0.000000,0,0,0,0
231276,1376,0,7,4.686669,-0.642235,-9.853752,-171.310211,0.364489,84.030418,5590500.00,38.402256,33.704597,0.000000,0.000000,0.000001,0.000001,0.000001,0.000001,0.000001,0,0,0,0
231449,1377,0,233,4.381220,0.022077,-9.853712,-171.310211,0.360213,84.024857,5590500.00,38.402256,33.704597,0.000000,0.000000,0.000001,0.000001,0.000001,0.000001,0.000001,0,0,0,0
231622,1378,0,207,3.679496,-1.512224,-9.854269,-171.310211,0.354797,84.009598,5590500.00,38.402256,33.704597,0.000000,0.000000,0.000001,0.000001,0.000001,0.000001,0.000001,0,0,0,0
231795,1379,0,57,4.018697,-0.565307,-9.853878,-171.310211,0.349385,83.991516,5590500.00,38.402256,33.704597,0.000000,0.000000,0.000001,0.000001,0.000001,0.000001,0.000001,0,0,0,0
231959,1380,0,229,4.378495,3.092746,-9.854772,-171.310211,0.343859,83.991516,5590600.00,38.402256,33.704597,0.000000,0.000000,0.000001,0.000001,0.000001,0.000001,0.000001,0,0,0,0
232119,1381,0,229,4.378495,3.092746,-9.854772,-171.310211,0.343859,83.976318,5590600.00,38.402256,33.704597,0.000000,0.000000,0.000001,0.000001,0.000001,0.000001,0.000001,0,0,0,0
232292,1382,0,65,4.007392,-3.198767,-9.853988,-171.310211,0.339095,83.966118,5590600.00,38.402256,33.704597,0.000000,0.000000,0.000001,0.000001,0.000001,0.000001,0.000001,0,0,0,0
232465,1383,0,97,4.332263,-0.450464,-9.853561,-171.310211,0.335371,83.949173,5590600.00,38.402256,33.704597,0.000000,0.000000,0.000000,0.000000,0.000000,0.000000,0.000000,0,0,0,0
232637,1384,0,103,4.420105,-0.984837,-9.854038,-171.310211,0.331670,83.934555,5590600.00,38.402256,33.704597,0.000000,0.000000,0.000001,0.000001,0.000001,0.000001,0.000001,0,0,0,0
232801,1385,0,179,3.628345,2.171396,-9.854300,-171.310211,0.328925,83.918251,5590600.00,38.402256,33.704597,0.000000,0.000000,0.000001,0.000001,0.000001,0.000001,0.000001,0,0,0,0
232960,1386,0,179,3.628345,2.171396,-9.854300,-171.310211,0.328925,83.918251,5590700.00,38.402256,33.704597,0.000000,0.000000,0.000000,0.000000,0.000000,0.000000,0.000000,0,0,0,0
233133,1387,0,59,4.606531,1.892398,-9.854381,-171.310211,0.326658,83.895370,5590700.00,38.402256,33.704597,0.000000,0.000000,0.000000,0.000000,0.000000,0.000000,0.000000,0,0,0,0
233307,1388,0,57,4.322074,-0.716453,-9.854120,-171.310211,0.324696,83.851700,5590700.00,38.402256,33.704597,0.000000,0.000000,0.000000,0.000000,0.000000,0.000000,0.000000,0,0,0,0
233480,1389,0,113,3.554786,-1.353604,-9.854330,-171.310211,0.323095,83.833656,5590700.00,38.402256,33.704597,0.000000,0.000000,0.000001,0.000001,0.000001,0.000001,0.000001,0,0,0,0
233652,1390,0,69,4.467595,-1.737126,-9.854527,-171.310211,0.321843,83.815712,5590700.00,38.402256,33.704597,0.000000,0.000000,0.000000,0.000000,0.000000,0.000000,0.000000,0,0,0,0
233810,1391,0,109,4.121752,1.831638,-9.853712,-171.310211,0.321843,83.815712,5590700.00,38.402256,33.704597,0.000000,0.000000,0.000000,0.000000,0.000000,0.000000,0.000000,0,0,0,0
234148,1393,0,91,4.801598,-0.702520,-9.854477,-171.310211,0.319876,83.786407,5590800.00,38.402256,33.704597,0.000000,0.000000,0.000001,0.000001,0.000001,0.000001,0.000001,0,0,0,0
234320,1394,0,191,3.832961,1.970040,-9.854145,-171.310211,0.319177,83.777031,5590800.00,38.402256,33.704597,0.000000,0.000000,0.000000,0.000000,0.000000,0.000000,0.000000,0,0,0,0
234494,1395,0,99,3.688118,-3.011197,-9.854073,-171.310211,0.318480,83.769791,5590800.00,38.402256,33.704597,0.000000,0.000000,0.000000,0.000000,0.000000,0.000000,0.000000,0,0,0,0
234666,1396,0,107,3.925677,-1.104501,-9.854053,-171.310211,0.317890,83.750809,5590800.00,38.402256,33.704597,0.000000,0.000000,0.000001,0.000001,0.000001,0.000001,0.000001,0,0,0,0
234824,1397,0,123,3.424381,-4.338545,-9.854608,-171.310211,0.317890,83.750809,5590800.00,38.402256,33.704597,0.000000,0.000000,0.000001,0.000001,0.000001,0.000001,0.000001,0,0,0,0
234989,1398,0,123,3.424381,-4.338545,-9.854608,-171.310211,0.317435,83.733727,5590900.00,38.402256,33.704597,0.000000,0.000000,0.000001,0.000001,0.000001,0.000001,0.000001,0,0,0,0
235161,1399,0,127,3.605163,1.355682,-9.854822,-171.310211,0.317019,83.720680,5590900.00,38.402256,33.704597,0.000000,0.000000,0.000000,0.000000,0.000000,0.000000,0.000000,0,0,0,0
235335,1400,0,81,4.335247,5.208397,-9.854646,-171.310211,0.316656,83.711922,5590900.00,38.402256,33.704597,0.000000,0.000000,0.000000,0.000000,0.000000,0.000000,0.000000,0,0,0,0
235501,1401,0,181,4.345576,-4.287313,-9.854561,-171.310211,0.316355,83.706337,5590900.00,38.402256,33.704597,0.000000,0.000000,0.000001,0.000001,0.000000,0.000000,0.000000,0,0,0,0
235829,1403,0,239,4.561772,3.854449,-9.854764,-171.310211,0.316088,83.702454,5590900.00,38.402256,33.704597,0.000000,0.000000,0.000000,0.000000,0.000000,0.000000,0.000000,0,0,0,0
236003,1404,0,241,4.302415,-5.483595,-9.854152,-171.310211,0.315850,83.699669,5591000.00,38.402256,33.704597,0.000000,0.000000,0.000001,0.000001,0.000001,0.000001,0.000001,0,0,0,0
236176,1405,0,51,3.701957,3.730450,-9.854384,-171.310211,0.315648,83.697723,5591000.00,38.402256,33.704597,0.000000,0.000000,0.000000,0.000000,0.000000,0.000000,0.000000,0,0,0,0
236349,1406,0,47,3.690865,4.048316,-9.853987,-171.310211,0.315446,83.696083,5591000.00,38.402256,33.704597,0.000000,0.000000,0.000000,0.000000,0.000000,0.000000,0.000000,0,0,0,0
236671,1408,0,55,4.469343,-3.784583,-9.854102,-171.310211,0.315274,83.694885,5591000.00,38.402256,33.704597,0.000000,0.000000,0.000001,0.000001,0.000001,0.000001,0.000001,0,0,0,0
236843,1409,0,251,4.805230,0.236351,-9.853972,-171.310211,0.315118,83.693947,5591000.00,38.402256,33.704597,0.000000,0.000000,0.000001,0.000001,0.000001,0.000001,0.000001,0,0,0,0
237016,1410,0,207,3.774373,0.504320,-9.854323,-171.310211,0.314968,83.688057,5591100.00,38.402256,33.704597,0.000000,0.000000,0.000001,0.000001,0.000001,0.000001,0.000001,0,0,0,0
237190,1411,0,215,4.197871,-1.751734,-9.855035,-171.310211,0.314840,83.678215,5591100.00,38.402256,33.704597,0.000000,0.000000,0.000001,0.000001,0.000001,0.000001,0.000001,0,0,0,0
237348,1412,0,123,4.098255,-0.801341,-9.854699,-171.310211,0.314840,83.678215,5591100.00,38.402256,33.704597,0.000000,0.000000,0.000001,0.000001,0.000001,0.000001,0.000001,0,0,0,0
237513,1413,0,123,4.098255,-0.801341,-9.854699,-171.310211,0.313797,83.664963,5591100.00,38.402256,33.704597,0.000000,0.000000,0.000000,0.000000,0.000000,0.000000,0.000000,0,0,0,0
237685,1414,0,23,4.122181,-1.031473,-9.853882,-171.310211,0.312748,83.659325,5591100.00,38.402256,33.704597,0.000000,0.000000,0.000001,0.000001,0.000001,0.000001,0.000001,0,0,0,0
237858,1415,0,139,3.719788,-0.168273,-9.854053,-171.310211,0.312733,83.659828,5591100.00,38.402256,33.704597,0.000000,0.000000,0.000001,0.000001,0.000001,0.000001,0.000001,0,0,0,0
238030,1416,0,177,4.274997,3.757434,-9.854128,-171.310211,0.312720,83.652153,5591100.00,38.402256,33.704597,0.000000,0.000000,0.000000,0.000000,0.000000,0.000000,0.000000,0,0,0,0
238189,1417,0,231,3.905745,-1.673120,-9.854527,-171.310211,0.312720,83.652153,5591100.00,38.402256,33.704597,0.000000,0.000000,0.000000,0.000000,0.000000,0.000000,0.000000,0,0,0,0
238355,1418,0,231,3.905745,-1.673120,-9.854527,-171.310211,0.312708,83.646423,5591100.00,38.402256,33.704597,0.000000,0.000000,0.000000,0.000000,0.000000,0.000000,0.000000,0,0,0,0
238528,1419,0,55,4.308496,-0.427212,-9.854351,-171.310211,0.312698,83.642365,5591100.00,38.402256,33.704597,0.000000,0.000000,0.000001,0.000001,0.000001,0.000001,0.000001,0,0,0,0
238700,1420,0,59,4.117435,-2.916964,-9.853899,-171.310211,0.312529,83.645950,5591100.00,38.402256,33.704597,0.000000,0.000000,0.000000,0.000000,0.000000,0.000000,0.000000,0,0,0,0
238872,1421,0,49,4.164137,1.695317,-9.853344,-171.310211,0.312049,83.648323,5591100.00,38.402256,33.704597,0.000000,0.000000,0.000000,0.000000,0.000000,0.000000,0.000000,0,0,0,0
239039,1422,0,87,4.972347,2.513309,-9.853435,-171.310211,0.312070,83.645218,5591100.00,38.402256,33.704597,0.000000,0.000000,0.000001,0.000001,0.000000,0.000000,0.000000,0,0,0,0
239368,1424,0,129,4.084191,0.795701,-9.854230,-171.310211,0.312092,83.641182,5591100.00,38.402256,33.704597,0.000000,0.000000,0.000000,0.000000,0.000000,0.000000,0.000000,0,0,0,0
239542,1425,0,165,4.214877,-6.833449,-9.854585,-171.310211,0.312109,83.638565,5591100.00,38.402256,33.704597,0.000000,0.000000,0.000001,0.000001,0.000001,0.000001,0.000001,0,0,0,0
239714,1426,0,155,3.753669,3.052616,-9.854177,-171.310211,0.312126,83.643105,5591100.00,38.402256,33.704597,0.000000,0.000000,0.000001,0.000001,0.000001,0.000001,0.000001,0,0,0,0
240037,1428,0,187,3.357776,-3.010931,-9.855085,-171.310211,0.312140,83.650764,5591100.00,38.402256,33.704597,0.000000,0.000000,0.000000,0.000000,0.000000,0.000000,0.000000,0,0,0,0
240209,1429,0,209,3.569739,1.369252,-9.854948,-171.310211,0.312155,83.657745,5591100.00,38.402256,33.704597,0.000000,0.000000,0.000001,0.000001,0.000001,0.000001,0.000001,0,0,0,0
240382,1430,0,139,4.225234,1.916387,-9.854764,-171.310211,0.312167,83.663147,5591100.00,38.402256,33.704597,0.000000,0.000000,0.000001,0.000001,0.000001,0.000001,0.000001,0,0,0,0
240555,1431,0,79,4.751446,2.727256,-9.854912,-171.310211,0.312179,83.667442,5591100.00,38.402256,33.704597,0.000000,0.000000,0.000000,0.000000,0.000000,0.000000,0.000000,0,0,0,0
240728,1432,0,85,3.878284,1.266371,-9.854639,-171.310211,0.312190,83.670815,5591100.00,38.402256,33.704597,0.000000,0.000000,0.000001,0.000001,0.000001,0.000001,0.000001,0,0,0,0
241224,1435,0,125,3.848179,0.707178,-9.854989,-171.310211,0.312209,83.675438,5591100.00,38.402256,33.704597,0.000000,0.000000,0.000001,0.000001,0.000001,0.000001,0.000001,0,0,0,0
241398,1436,0,201,4.390306,-0.571010,-9.854857,-171.310211,0.312218,83.677116,5591100.00,38.402256,33.704597,0.000000,0.000000,0.000001,0.000001,0.000001,0.000001,0.000001,0,0,0,0
241571,1437,0,189,4.086516,-0.199334,-9.854701,-171.310211,0.312226,83.678398,5591100.00,38.402256,33.704597,0.000000,0.000000,0.000001,0.000001,0.000001,0.000001,0.000001,0,0,0,0
241743,1438,0,201,4.174653,1.728698,-9.854215,-171.310211,0.312234,83.679504,5591100.00,38.402256,33.704597,0.000000,0.000000,0.000000,0.000000,0.000000,0.000000,0.000000,0,0,0,0
242239,1441,0,205,4.360614,-0.959585,-9.854593,-171.310211,0.312249,83.681206,5591100.00,38.402256,33.704597,0.000000,0.000000,0.000001,0.000001,0.000001,0.000001,0.000001,0,0,0,0
242412,1442,0,117,4.255931,-3.625039,-9.854243,-171.310211,0.312256,83.681839,5591100.00,38.402256,33.704597,0.000000,0.000000,0.000001,0.000001,0.000001,0.000001,0.000001,0,0,0,0
242584,1443,0,59,4.027612,4.434361,-9.854129,-171.310211,0.312263,83.682419,5591100.00,38.402256,33.704597,0.000000,0.000000,0.000001,0.000001,0.000001,0.000001,0.000001,0,0,0,0
242743,1444,0,115,4.252873,0.359103,-9.853961,-171.310211,0.312263,83.682419,5591100.00,38.402256,33.704597,0.000000,0.000000,0.000001,0.000001,0.000001,0.000001,0.000001,0,0,0,0
242908,1445,0,115,4.252873,0.359103,-9.853961,-171.310211,0.312269,83.682838,5591100.00,38.402256,33.704597,0.000000,0.000000,0.000001,0.000001,0.000001,0.000001,0.000001,0,0,0,0
243080,1446,0,65,4.475074,1.785602,-9.854289,-171.310211,0.312275,83.683273,5591100.00,38.402256,33.704597,0.000000,0.000000,0.000000,0.000000,0.000000,0.000000,0.000000,0,0,0,0
243254,1447,0,23,3.872174,-2.830514,-9.854783,-171.310211,0.312281,83.683586,5591100.00,38.402256,33.704597,0.000000,0.000000,0.000001,0.000001,0.000001,0.000001,0.000001,0,0,0,0
243426,1448,0,205,4.260040,1.873748,-9.854582,-171.310211,0.312286,83.683861,5591100.00,38.402256,33.704597,0.000000,0.000000,0.000000,0.000000,0.000000,0.000000,0.000000,0,0,0,0
243749,1450,0,163,4.228073,-0.264520,-9.854840,-171.310211,0.312291,83.684135,5591100.00,38.402256,33.704597,0.000000,0.000000,0.000001,0.000001,0.000001,0.000001,0.000001,0,0,0,0
243921,1451,0,3,4.560616,1.795145,-9.855030,-171.310211,0.312295,83.684395,5591100.00,38.402256,33.704597,0.000000,0.000000,0.000001,0.000001,0.000001,0.000001,0.000001,0,0,0,0
244095,1452,0,19,3.639318,-4.840294,-9.855154,-171.310211,0.312300,83.684578,5591100.00,38.402256,33.704597,0.000000,0.000000,0.000001,0.000001,0.000001,0.000001,0.000001,0,0,0,0
244267,1453,0,105,3.625678,0.371210,-9.855306,-171.310211,0.312304,83.684715,5591100.00,38.402256,33.704597,0.000000,0.000000,0.000001,0.000001,0.000001,0.000001,0.000001,0,0,0,0
244436,1454,0,131,3.958673,-0.036486,-9.855136,-171.310211,0.312309,83.684853,5591100.00,38.402256,33.704597,0.000000,0.000000,0.000000,0.000000,0.000000,0.000001,0.000001,0,0,0,0
5,0,131,3.958673,-0.036486,-9.855136,-171.310211,0.312309,83.684853,5591100.00,38.402256,33.704597,0.000000,0.000000,0.000000,0.000000,0.000000,0.000000,0.000000,0,0,0,0,0

244763,1456,0,167,4.013319,1.423792,-9.855249,-171.310211,0.312313,83.684990,5591100.00,38.402256,33.704597,0.000000,0.000000,0.000000,0.000000,0.000000,0.000000,0.000000,0,0,0,0
244936,1457,0,217,4.218713,-1.319245,-9.855169,-171.310211,0.312316,83.685127,5591100.00,38.402256,33.704597,0.000000,0.000000,0.000001,0.000001,0.000001,0.000001,0.000001,0,0,0,0
245108,1458,0,63,3.947039,3.606648,-9.855324,-171.310211,0.312320,83.685257,5591100.00,38.402256,33.704597,0.000000,0.000000,0.000001,0.000001,0.000001,0.000001,0.000001,0,0,0,0
245282,1459,0,95,4.174392,-3.124771,-9.855668,-171.310211,0.312324,83.685402,5591100.00,38.402256,33.704597,0.000000,0.000000,0.000000,0.000000,0.000000,0.000000,0.000000,0,0,0,0
245604,1461,0,101,3.673323,2.080209,-9.855577,-171.310211,0.312327,83.685539,5591100.00,38.402256,33.704597,0.000000,0.000000,0.000001,0.000001,0.000001,0.000001,0.000001,0,0,0,0
245950,1463,0,79,3.925524,2.062532,-9.854936,-171.310211,0.312334,83.685806,5591100.00,38.402256,33.704597,0.000000,0.000000,0.000001,0.000001,0.000001,0.000001,0.000001,0,0,0,0
246123,1464,0,85,3.521459,-0.936507,-9.855328,-171.310211,0.312337,83.685944,5591100.00,38.402256,33.704597,0.000000,0.000000,0.000000,0.000000,0.000000,0.000000,0.000000,0,0,0,0
246292,1465,0,97,4.623437,0.980396,-9.854911,-171.310211,0.312340,83.685989,5591100.00,38.402256,33.704597,0.000000,0.000000,0.000001,0.000001,0.000001,0.000001,0.000000,0,0,0,0
246618,1467,0,251,4.068894,-2.478496,-9.855049,-171.310211,0.312343,83.684242,5591100.00,38.402256,33.704597,0.000000,0.000000,0.000000,0.000000,0.000000,0.000000,0.000000,0,0,0,0
246791,1468,0,53,4.574427,3.553733,-9.855467,-171.310211,0.312346,83.680412,5591100.00,38.402256,33.704597,0.000000,0.000000,0.000000,0.000000,0.000000,0.000000,0.000000,0,0,0,0
246964,1469,0,13,3.863480,-2.663508,-9.855840,-171.310211,0.312348,83.675583,5592100.00,38.402252,33.704594,0.000000,0.000000,0.000000,0.000000,0.000000,0.000000,0.000000,0,0,0,0
247287,1471,0,23,3.980372,4.723299,-9.854806,-171.310211,0.312351,83.669975,5592100.00,38.402252,33.704594,0.000000,0.000000,0.000001,0.000001,0.000001,0.000001,0.000001,0,0,0,0
247460,1472,0,123,4.041737,-3.983368,-9.855781,-171.310211,0.312354,83.664040,5592100.00,38.402252,33.704594,0.000000,0.000000,0.000000,0.000000,0.000000,0.000000,0.000000,0,0,0,0
247632,1473,0,65,4.483578,2.774318,-9.855471,-171.310211,0.312357,83.658234,5592100.00,38.402252,33.704594,0.000000,0.000000,0.000000,0.000000,0.000000,0.000000,0.000000,0,0,0,0
247804,1474,0,161,4.927238,-3.213522,-9.855474,-171.310211,0.312359,83.653229,5592100.00,38.402252,33.704594,0.000000,0.000000,0.000001,0.000001,0.000001,0.000001,0.000001,0,0,0,0
247977,1475,0,219,3.658042,0.196306,-9.855432,-171.310211,0.312361,83.648872,5592200.00,38.402252,33.704594,0.000000,0.000000,0.000000,0.000000,0.000000,0.000000,0.000000,0,0,0,0
248136,1476,0,205,4.784840,0.105786,-9.855622,-171.310211,0.312361,83.648872,5592200.00,38.402252,33.704594,0.000000,0.000000,0.000000,0.000000,0.000000,0.000000,0.000000,0,0,0,0
248301,1477,0,205,4.784840,0.105786,-9.855622,-171.310211,0.312363,83.645210,5592200.00,38.402252,33.704594,0.000000,0.000000,0.000000,0.000000,0.000000,0.000000,0.000000,0,0,0,0
248473,1478,0,33,4.337863,1.330850,-9.855792,-171.310211,0.312365,83.642189,5592200.00,38.402252,33.704594,0.000000,0.000000,0.000001,0.000001,0.000001,0.000001,0.000001,0,0,0,0
248646,1479,0,203,4.763717,3.124601,-9.855865,-171.310211,0.312367,83.639709,5592200.00,38.402252,33.704594,0.000000,0.000000,0.000001,0.000001,0.000001,0.000001,0.000001,0,0,0,0
248818,1480,0,211,4.125405,-4.879198,-9.855243,-171.310211,0.312369,83.638191,5592200.00,38.402252,33.704594,0.000000,0.000000,0.000000,0.000000,0.000000,0.000000,0.000000,0,0,0,0
249315,1483,0,239,4.134708,-0.297626,-9.855883,-171.310211,0.312373,83.648697,5592300.00,38.402252,33.704594,0.000000,0.000000,0.000001,0.000001,0.000001,0.000001,0.000001,0,0,0,0
249487,1484,0,39,3.899457,3.433466,-9.855435,-171.310211,0.312375,83.653191,5592300.00,38.402252,33.704594,0.000000,0.000000,0.000000,0.000000,0.000000,0.000000,0.000000,0,0,0,0
249660,1485,0,155,3.456746,-2.860880,-9.856114,-171.310211,0.312277,83.657669,5592300.00,38.402252,33.704594,0.000000,0.000000,0.000001,0.000001,0.000001,0.000001,0.000001,0,0,0,0
249832,1486,0,243,3.083688,0.551630,-9.856354,-171.310211,0.312280,83.659843,5592300.00,38.402252,33.704594,0.000000,0.000000,0.000000,0.000000,0.000000,0.000000,0.000000,0,0,0,0
249993,1487,0,199,3.747613,4.167723,-9.856337,-171.310211,0.312280,83.659843,5592400.00,38.402252,33.704594,0.000000,0.000000,0.000000,0.000000,0.000000,0.000000,0.000000,0,0,0,0
250156,1488,0,199,3.747613,4.167723,-9.856337,-171.310211,0.312284,83.665558,5592400.00,38.402252,33.704594,0.000000,0.000000,0.000001,0.000001,0.000001,0.000001,0.000001,0,0,0,0
250329,1489,0,25,3.938578,-5.975885,-9.856583,-171.310211,0.312287,83.670029,5592400.00,38.402252,33.704594,0.000000,0.000000,0.000001,0.000001,0.000001,0.000001,0.000001,0,0,0,0
250502,1490,0,187,4.973640,-0.356946,-9.856768,-171.310211,0.312291,83.673035,5592400.00,38.402252,33.704594,0.000000,0.000000,0.000001,0.000001,0.000001,0.000001,0.000001,0,0,0,0
250674,1491,0,155,4.996961,7.257968,-9.856812,-171.310211,0.312293,83.675346,5592400.00,38.402252,33.704594,0.000000,0.000000,0.000001,0.000001,0.000001,0.000001,0.000001,0,0,0,0
250847,1492,0,245,4.536046,-2.027318,-9.856571,-171.310211,0.312296,83.677223,5592400.00,38.402252,33.704594,0.000000,0.000000,0.000000,0.000000,0.000000,0.000000,0.000000,0,0,0,0
251170,1494,0,231,3.624625,-3.754195,-9.856709,-171.310211,0.312299,83.678757,5592500.00,38.402252,33.704594,0.000000,0.000000,0.000001,0.000001,0.000001,0.000001,0.000001,0,0,0,0
251342,1495,0,63,3.910010,1.650763,-9.856841,-171.310211,0.312302,83.679909,5592500.00,38.402252,33.704594,0.000000,0.000000,0.000001,0.000001,0.000001,0.000001,0.000001,0,0,0,0
251515,1496,0,139,4.276493,2.367981,-9.856456,-171.310211,0.312305,83.680794,5592500.00,38.402252,33.704594,0.000000,0.000000,0.000000,0.000000,0.000000,0.000000,0.000000,0,0,0,0
251688,1497,0,193,3.628525,0.951993,-9.856437,-171.310211,0.312308,83.681595,5592500.00,38.402252,33.704594,0.000000,0.000000,0.000001,0.000001,0.000001,0.000001,0.000001,0,0,0,0
251846,1498,0,3,4.604232,-2.406575,-9.856350,-171.310211,0.312308,83.681595,5592500.00,38.402252,33.704594,0.000000,0.000000,0.000001,0.000001,0.000001,0.000001,0.000001,0,0,0,0
252011,1499,0,3,4.604232,-2.406575,-9.856350,-171.310211,0.312310,83.682182,5592500.00,38.402252,33.704594,0.000000,0.000000,0.000000,0.000000,0.000000,0.000000,0.000000,0,0,0,0
252184,1500,0,5,4.188962,1.820311,-9.857311,-171.310211,0.312313,83.682693,5592500.00,38.402252,33.704594,0.000000,0.000000,0.000000,0.000000,0.000000,0.000000,0.000000,0,0,0,0
252357,1501,0,31,4.109679,-5.001935,-9.856417,-171.310211,0.312315,83.683105,5592500.00,38.402252,33.704594,0.000000,0.000000,0.000001,0.000001,0.000001,0.000001,0.000001,0,0,0,0
252529,1502,0,83,4.029480,0.654800,-9.857239,-171.310211,0.312317,83.683510,5592500.00,38.402252,33.704594,0.000000,0.000000,0.000000,0.000000,0.000000,0.000000,0.000000,0,0,0,0
252692,1503,0,41,3.884053,3.344470,-9.857444,-171.310211,0.312319,83.683800,5592500.00,38.402252,33.704594,0.000000,0.000000,0.000000,0.000000,0.000000,0.000000,0.000000,0,0,0,0
253025,1505,0,49,4.119039,0.634952,-9.857366,-171.310211,0.312321,83.684074,5592500.00,38.402252,33.704594,0.000000,0.000000,0.000000,0.000000,0.000000,0.000000,0.000000,0,0,0,0
253199,1506,0,121,3.108504,-2.905895,-9.856946,-171.310211,0.312324,83.684364,5592500.00,38.402252,33.704594,0.000000,0.000000,0.000000,0.000000,0.000000,0.000000,0.000000,0,0,0,0
253372,1507,0,153,3.631162,1.798716,-9.856628,-171.310211,0.312326,83.684593,5592500.00,38.402252,33.704594,0.000000,0.000000,0.000000,0.000000,0.000000,0.000000,0.000000,0,0,0,0
508,0,247,3.794185,0.780013,-9.856091,-171.310211,0.312328,83.684731,5592500.00,38.402252,33.704594,0.000000,0.000000,0.000000,0.000000,0.000000,0.000000,0.000000,0,0,0,0,0

254040,1511,0,129,4.641046,2.562581,-9.855470,-171.310211,0.312332,83.685005,5592500.00,38.402252,33.704594,0.000000,0.000000,0.000001,0.000001,0.000001,0.000001,0.000001,0,0,0,0
254213,1512,0,139,4.583038,0.092872,-9.855915,-171.310211,0.312334,83.685143,5592500.00,38.402252,33.704594,0.000000,0.000000,0.000000,0.000000,0.000000,0.000000,0.000000,0,0,0,0
254387,1513,0,127,4.227557,-0.782217,-9.855733,-171.310211,0.312336,83.686699,5592500.00,38.402252,33.704594,0.000000,0.000000,0.000001,0.000001,0.000001,0.000001,0.000001,0,0,0,0
254545,1514,0,243,3.355706,-3.574426,-9.855164,-171.310211,0.312336,83.686699,5592500.00,38.402252,33.704594,0.000000,0.000000,0.000001,0.000001,0.000001,0.000001,0.000001,0,0,0,0
254881,1516,0,139,4.069980,0.753893,-9.855241,-171.310211,0.312339,83.695137,5592500.00,38.402252,33.704594,0.000000,0.000000,0.000001,0.000001,0.000001,0.000001,0.000001,0,0,0,0
255054,1517,0,151,3.981991,1.534529,-9.855203,-171.310211,0.312341,83.701355,5592500.00,38.402252,33.704594,0.000000,0.000000,0.000001,0.000001,0.000001,0.000001,0.000001,0,0,0,0
255227,1518,0,147,3.783356,2.255885,-9.855398,-171.310211,0.312343,83.708748,5592500.00,38.402252,33.704594,0.000000,0.000000,0.000001,0.000001,0.000001,0.000001,0.000001,0,0,0,0
255400,1519,0,225,4.211608,0.116059,-9.855556,-171.310211,0.312345,83.717026,5592500.00,38.402252,33.704594,0.000000,0.000000,0.000001,0.000001,0.000001,0.000001,0.000001,0,0,0,0
255559,1520,0,173,3.886579,-4.860829,-9.855521,-171.310211,0.312345,83.717026,5592500.00,38.402252,33.704594,0.000000,0.000000,0.000001,0.000001,0.000001,0.000001,0.000001,0,0,0,0
255896,1522,0,117,3.866282,-0.200660,-9.855535,-171.310211,0.312348,83.740219,5592500.00,38.402252,33.704594,0.000000,0.000000,0.000001,0.000001,0.000001,0.000001,0.000001,0,0,0,0
256068,1523,0,219,4.308810,4.727401,-9.855254,-171.310211,0.312350,83.757835,5592500.00,38.402252,33.704594,0.000000,0.000000,0.000001,0.000001,0.000001,0.000001,0.000001,0,0,0,0
256242,1524,0,243,4.280243,-0.928955,-9.854836,-171.310211,0.312351,83.772079,5592500.00,38.402252,33.704594,0.000000,0.000000,0.000001,0.000001,0.000001,0.000001,0.000001,0,0,0,0
256565,1526,0,59,4.300311,-5.759991,-9.854660,-171.310211,0.312353,83.782417,5592500.00,38.402252,33.704594,0.000000,0.000000,0.000001,0.000001,0.000001,0.000001,0.000001,0,0,0,0
256737,1527,0,191,4.681987,6.352116,-9.855606,-171.310211,0.312355,83.789612,5592500.00,38.402252,33.704594,0.000000,0.000000,0.000000,0.000000,0.000000,0.000000,0.000000,0,0,0,0
256910,1528,0,197,4.363453,-2.736480,-9.855163,-171.310211,0.312356,83.794380,5592500.00,38.402252,33.704594,0.000000,0.000000,0.000000,0.000000,0.000000,0.000000,0.000000,0,0,0,0
257082,1529,0,209,3.376928,1.747966,-9.854989,-171.310211,0.312358,83.798157,5592500.00,38.402252,33.704594,0.000000,0.000000,0.000001,0.000001,0.000001,0.000001,0.000001,0,0,0,0
257256,1530,0,223,4.232528,-0.616798,-9.855661,-171.310211,0.312359,83.804726,5592500.00,38.402252,33.704594,0.000000,0.000000,0.000001,0.000001,0.000001,0.000001,0.000001,0,0,0,0
257579,1532,0,13,3.671687,1.281179,-9.855821,-171.310211,0.312361,83.798805,5592500.00,38.402252,33.704594,0.000000,0.000000,0.000001,0.000001,0.000001,0.000001,0.000001,0,0,0,0
257751,1533,0,83,4.229703,-1.950369,-9.856031,-171.310211,0.312363,83.793098,5592500.00,38.402252,33.704594,0.000000,0.000000,0.000001,0.000001,0.000001,0.000001,0.000001,0,0,0,0
257924,1534,0,9,4.414520,-2.502229,-9.856341,-171.310211,0.312364,83.797089,5592500.00,38.402252,33.704594,0.000000,0.000000,0.000001,0.000001,0.000001,0.000001,0.000001,0,0,0,0
258096,1535,0,59,3.125860,1.956281,-9.856449,-171.310211,0.312365,83.799843,5592500.00,38.402252,33.704594,0.000000,0.000000,0.000000,0.000000,0.000000,0.000000,0.000000,0,0,0,0
258261,1536,0,247,3.857573,-1.485567,-9.856745,-171.310211,0.312366,83.802109,5592500.00,38.402252,33.704594,0.000000,0.000000,0.000000,0.000000,0.000000,0.000000,0.000000,0,0,0,0
258593,1538,0,243,4.404295,1.409753,-9.855881,-171.310211,0.312367,83.803642,5592500.00,38.402252,33.704594,0.000000,0.000000,0.000000,0.000000,0.000000,0.000000,0.000000,0,0,0,0
258766,1539,0,253,4.553132,1.873126,-9.855342,-171.310211,0.312368,83.804787,5592500.00,38.402252,33.704594,0.000000,0.000000,0.000001,0.000001,0.000001,0.000001,0.000001,0,0,0,0
258939,1540,0,63,4.270442,3.680699,-9.854669,-171.310211,0.312369,83.805756,5592500.00,38.402252,33.704594,0.000000,0.000000,0.000001,0.000001,0.000001,0.000001,0.000001,0,0,0,0
259112,1541,0,253,4.464797,-4.124508,-9.854403,-171.310211,0.312370,83.806534,5592500.00,38.402252,33.704594,0.000000,0.000000,0.000000,0.000000,0.000000,0.000000,0.000000,0,0,0,0
259270,1542,0,9,3.946188,1.633919,-9.854740,-171.310211,0.312370,83.806534,5592500.00,38.402252,33.704594,0.000000,0.000000,0.000000,0.000000,0.000000,0.000000,0.000000,0,0,0,0
259435,1543,0,9,3.946188,1.633919,-9.854740,-171.310211,0.312371,83.807182,5592500.00,38.402252,33.704594,0.000000,0.000000,0.000000,0.000000,0.000000,0.000000,0.000000,0,0,0,0
259607,1544,0,253,4.982037,-3.480164,-9.853948,-171.310211,0.312372,83.807732,5592500.00,38.402252,33.704594,0.000000,0.000000,0.000000,0.000000,0.000000,0.000000,0.000000,0,0,0,0
259780,1545,0,29,4.423687,2.259366,-9.854362,-171.310211,0.312373,83.808159,5592500.00,38.402252,33.704594,0.000000,0.000000,0.000001,0.000001,0.000001,0.000001,0.000001,0,0,0,0
259953,1546,0,115,4.053828,-1.458627,-9.854284,-171.310211,0.312375,83.808571,5592500.00,38.402252,33.704594,0.000000,0.000000,0.000000,0.000000,0.000000,0.000000,0.000000,0,0,0,0
260126,1547,0,115,3.424285,-1.162161,-9.854579,-171.310211,0.312376,83.808868,5593400.00,38.402248,33.704594,0.000000,0.000000,0.000001,0.000001,0.000001,0.000001,0.000001,0,0,0,0
260450,1549,0,33,4.648191,-0.321045,-9.854314,-171.310211,0.312377,83.812531,5593400.00,38.402248,33.704594,0.000000,0.000000,0.000000,0.000000,0.000000,0.000000,0.000000,0,0,0,0
260622,1550,0,43,4.055253,1.951060,-9.853695,-171.310211,0.312378,83.820198,5593400.00,38.402248,33.704594,0.000000,0.000000,0.000001,0.000001,0.000001,0.000001,0.000001,0,0,0,0
260794,1551,0,129,3.873470,-0.674799,-9.853765,-171.310211,0.312379,83.828323,5593400.00,38.402248,33.704594,0.000000,0.000000,0.000000,0.000000,0.000000,0.000000,0.000000,0,0,0,0
260967,1552,0,47,4.135238,1.487325,-9.854387,-171.310211,0.312380,83.835892,5593500.00,38.402248,33.704594,0.000000,0.000000,0.000000,0.000000,0.000000,0.000000,0.000000,0,0,0,0
261140,1553,0,69,3.130085,2.983460,-9.854319,-171.310211,0.312381,83.842720,5593500.00,38.402248,33.704594,0.000000,0.000000,0.000000,0.000000,0.000000,0.000000,0.000000,0,0,0,0
261299,1554,0,105,4.497811,-2.861624,-9.853781,-171.310211,0.312381,83.842720,5593500.00,38.402248,33.704594,0.000000,0.000000,0.000000,0.000000,0.000000,0.000000,0.000000,0,0,0,0
261464,1555,0,105,4.497811,-2.861624,-9.853781,-171.310211,0.312382,83.848770,5593500.00,38.402248,33.704594,0.000000,0.000000,0.000000,0.000000,0.000000,0.000000,0.000000,0,0,0,0
261808,1557,0,67,4.272692,-3.738258,-9.853619,-171.310211,0.312384,83.857025,5593500.00,38.402248,33.704594,0.000000,0.000000,0.000001,0.000001,0.000001,0.000001,0.000001,0,0,0,0
261981,1558,0,163,4.118113,1.528309,-9.853633,-171.310211,0.312385,83.859909,5593600.00,38.402248,33.704594,0.000000,0.000000,0.000001,0.000001,0.000001,0.000001,0.000001,0,0,0,0
262140,1559,0,27,4.230662,-2.112149,-9.854111,-171.310211,0.312385,83.859909,5593600.00,38.402248,33.704594,0.000000,0.000000,0.000001,0.000001,0.000001,0.000001,0.000001,0,0,0,0
262306,1560,0,27,4.230662,-2.112149,-9.854111,-171.310211,0.312387,83.862297,5593600.00,38.402248,33.704594,0.000000,0.000000,0.000001,0.000001,0.000001,0.000001,0.000001,0,0,0,0
262478,1561,0,135,4.653473,3.129244,-9.854215,-171.310211,0.312388,83.864082,5593600.00,38.402248,33.704594,0.000000,0.000000,0.000000,0.000000,0.000000,0.000000,0.000000,0,0,0,0
262651,1562,0,141,3.661935,1.085804,-9.854479,-171.310211,0.312389,83.865456,5593600.00,38.402248,33.704594,0.000000,0.000000,0.000001,0.000001,0.000001,0.000001,0.000001,0,0,0,0
262823,1563,0,221,4.021183,-1.474532,-9.854507,-171.310211,0.312390,83.866631,5593600.00,38.402248,33.704594,0.000000,0.000000,0.000000,0.000000,0.000000,0.000000,0.000000,0,0,0,0
262996,1564,0,19,4.144400,-1.524409,-9.854991,-171.310211,0.312391,83.867599,5593700.00,38.402248,33.704594,0.000000,0.000000,0.000001,0.000001,0.000001,0.000001,0.000001,0,0,0,0
263320,1566,0,171,3.934443,3.156930,-9.854746,-171.310211,0.312392,83.868439,5593700.00,38.402248,33.704594,0.000000,0.000000,0.000001,0.000001,0.000001,0.000001,0.000001,0,0,0,0
263494,1567,0,227,4.129382,-0.910414,-9.854984,-171.310211,0.312393,83.869118,5593700.00,38.402248,33.704594,0.000000,0.000000,0.000001,0.000001,0.000001,0.000001,0.000001,0,0,0,0
263666,1568,0,249,3.273001,-2.349912,-9.855714,-171.310211,0.312394,83.869637,5593700.00,38.402248,33.704594,0.000000,0.000000,0.000001,0.000001,0.000001,0.000001,0.000001,0,0,0,0
263838,1569,0,15,4.537923,3.777563,-9.856046,-171.310211,0.312395,83.870125,5593700.00,38.402248,33.704594,0.000000,0.000000,0.000001,0.000001,0.000001,0.000001,0.000001,0,0,0,0
264163,1571,0,27,4.046284,-5.408884,-9.856224,-171.310211,0.312396,83.870560,5593800.00,38.402248,33.704594,0.000000,0.000000,0.000000,0.000000,0.000000,0.000000,0.000000,0,0,0,0
264508,1573,0,213,3.696869,3.944671,-9.856143,-171.310211,0.312397,83.871277,5593800.00,38.402248,33.704594,0.000000,0.000000,0.000001,0.000001,0.000001,0.000001,0.000001,0,0,0,0
264681,1574,0,23,3.905132,-3.584211,-9.856505,-171.310211,0.312397,83.871582,5593800.00,38.402248,33.704594,0.000000,0.000000,0.000000,0.000000,0.000000,0.000000,0.000000,0,0,0,0
264854,1575,0,205,4.186341,-2.016973,-9.856523,-171.310211,0.312398,83.871887,5593800.00,38.402248,33.704594,0.000000,0.000000,0.000001,0.000001,0.000001,0.000001,0.000001,0,0,0,0
265015,1576,0,7,4.002552,4.541291,-9.856295,-171.310211,0.312398,83.871887,5593800.00,38.402248,33.704594,0.000000,0.000000,0.000001,0.000001,0.000001,0.000001,0.000001,0,0,0,0
265177,1577,0,7,4.002552,4.541291,-9.856295,-171.310211,0.312399,83.872086,5593800.00,38.402248,33.704594,0.000000,0.000000,0.000001,0.000001,0.000001,0.000001,0.000001,0,0,0,0
265351,1578,0,245,3.552730,-1.611670,-9.856359,-171.310211,0.312399,83.872238,5593800.00,38.402248,33.704594,0.000000,0.000000,0.000001,0.000001,0.000001,0.000001,0.000001,0,0,0,0
265523,1579,0,25,3.567418,1.462475,-9.856527,-171.310211,0.312400,83.872391,5593800.00,38.402248,33.704594,0.000000,0.000000,0.000000,0.000000,0.000000,0.000000,0.000000,0,0,0,0
265696,1580,0,203,4.321478,0.866073,-9.856684,-171.310211,0.312400,83.872543,5593800.00,38.402248,33.704594,0.000000,0.000000,0.000000,0.000000,0.000000,0.000000,0.000000,0,0,0,0
265869,1581,0,215,4.195133,-3.518839,-9.857714,-171.310211,0.312401,83.872696,5593800.00,38.402248,33.704594,0.000000,0.000000,0.000001,0.000001,0.000001,0.000001,0.000001,0,0,0,0
266042,1582,0,5,3.646529,2.113997,-9.857624,-171.310211,0.312402,83.872841,5593800.00,38.402248,33.704594,0.000000,0.000000,0.000000,0.000000,0.000000,0.000000,0.000000,0,0,0,0
266537,1585,0,19,4.265039,1.029293,-9.857098,-171.310211,0.312403,83.868584,5593800.00,38.402248,33.704594,0.000000,0.000000,0.000000,0.000000,0.000000,0.000000,0.000000,0,0,0,0
266710,1586,0,233,4.372144,-0.960525,-9.856852,-171.310211,0.312403,83.862312,5593800.00,38.402248,33.704594,0.000000,0.000000,0.000000,0.000000,0.000000,0.000000,0.000000,0,0,0,0
266883,1587,0,221,3.873415,-1.258487,-9.856606,-171.310211,0.312404,83.846115,5593800.00,38.402248,33.704594,0.000000,0.000000,0.000001,0.000001,0.000001,0.000001,0.000001,0,0,0,0
267380,1590,0,29,4.016212,-0.300463,-9.856742,-171.310211,0.312405,83.806595,5593800.00,38.402248,33.704594,0.000000,0.000000,0.000001,0.000001,0.000001,0.000001,0.000001,0,0,0,0
267552,1591,0,11,4.083968,1.789429,-9.856272,-171.310211,0.312405,83.789680,5593800.00,38.402248,33.704594,0.000000,0.000000,0.000000,0.000000,0.000000,0.000000,0.000000,0,0,0,0
267725,1592,0,225,3.711835,-2.348494,-9.856401,-171.310211,0.312406,83.778732,5593800.00,38.402248,33.704594,0.000000,0.000000,0.000000,0.000000,0.000000,0.000000,0.000000,0,0,0,0
267898,1593,0,5,3.449955,-2.811028,-9.856252,-171.310211,0.312407,83.771439,5593800.00,38.402248,33.704594,0.000000,0.000000,0.000001,0.000001,0.000001,0.000001,0.000001,0,0,0,0
268071,1594,0,67,3.544642,4.329570,-9.856079,-171.310211,0.312407,83.766319,5593800.00,38.402248,33.704594,0.000000,0.000000,0.000001,0.000001,0.000001,0.000001,0.000001,0,0,0,0
268394,1596,0,59,4.730948,-1.592105,-9.855776,-171.310211,0.312408,83.763000,5593800.00,38.402248,33.704594,0.000000,0.000000,0.000000,0.000000,0.000000,0.000000,0.000000,0,0,0,0
268566,1597,0,217,3.815496,0.518655,-9.855791,-171.310211,0.312408,83.760727,5593800.00,38.402248,33.704594,0.000000,0.000000,0.000001,0.000001,0.000001,0.000001,0.000001,0,0,0,0
268739,1598,0,47,4.128785,-0.350479,-9.856674,-171.310211,0.312409,83.758865,5593800.00,38.402248,33.704594,0.000000,0.000000,0.000001,0.000001,0.000001,0.000001,0.000001,0,0,0,0
268912,1599,0,19,3.923244,1.800896,-9.856688,-171.310211,0.312410,83.757484,5593800.00,38.402248,33.704594,0.000000,0.000000,0.000000,0.000000,0.000000,0.000000,0.000000,0,0,0,0
269080,1600,0,201,3.483282,-3.066308,-9.856263,-171.310211,0.312410,83.756470,5593800.00,38.402248,33.704594,0.000000,0.000000,0.000000,0.000000,0.000000,0.000000,0.000000,0,0,0,0
236,1601,0,201,3.483282,-3.066308,-9.856263,-171.310211,0.312410,83.756470,5593800.00,38.402248,33.704594,0.000000,0.000000,0.000000,0.000000,0.000000,0.000000,0.000000,0,0,0,0
269408,1602,0,217,4.250943,2.699720,-9.856632,-171.310211,0.312411,83.755707,5593800.00,38.402248,33.704594,0.000000,0.000000,0.000001,0.000001,0.000001,0.000001,0.000001,0,0,0,0
269581,1603,0,87,3.898307,1.409427,-9.856216,-171.310211,0.312411,83.755112,5593800.00,38.402248,33.704594,0.000000,0.000000,0.000000,0.000000,0.000000,0.000000,0.000000,0,0,0,0
269754,1604,0,69,4.885815,-0.416834,-9.856106,-171.310211,0.312412,83.754547,5593800.00,38.402248,33.704594,0.000000,0.000000,0.000001,0.000001,0.000001,0.000001,0.000001,0,0,0,0
269927,1605,0,175,4.516318,2.343929,-9.856133,-171.310211,0.312412,83.754135,5593800.00,38.402248,33.704594,0.000000,0.000000,0.000001,0.000001,0.000001,0.000001,0.000001,0,0,0,0
270085,1606,0,51,4.017370,-2.230342,-9.856418,-171.310211,0.312412,83.754135,5593800.00,38.402248,33.704594,0.000000,0.000000,0.000001,0.000001,0.000001,0.000001,0.000001,0,0,0,0
608,0,113,3.816250,-0.829560,-9.856899,-171.310211,0.312413,83.753479,5593800.00,38.402248,33.704594,0.000000,0.000000,0.000001,0.000001,0.000001,0.000001,0.000001,0,0,0,0,0

270596,1609,0,163,4.105269,2.807748,-9.856366,-171.310211,0.312414,83.752342,5593800.00,38.402248,33.704594,0.000000,0.000000,0.000000,0.000000,0.000000,0.000000,0.000000,0,0,0,0
270769,1610,0,165,4.240726,-5.180700,-9.856551,-171.310211,0.312414,83.750107,5593800.00,38.402248,33.704594,0.000000,0.000000,0.000001,0.000001,0.000001,0.000001,0.000001,0,0,0,0
271264,1613,0,133,5.086181,1.707456,-9.857240,-171.310211,0.312416,83.731140,5593800.00,38.402248,33.704594,0.000000,0.000000,0.000000,0.000000,0.000000,0.000000,0.000000,0,0,0,0
271437,1614,0,105,4.085278,0.406644,-9.857435,-171.310211,0.312416,83.726463,5593800.00,38.402248,33.704594,0.000000,0.000000,0.000000,0.000000,0.000000,0.000000,0.000000,0,0,0,0
271610,1615,0,167,4.297447,0.191518,-9.857647,-171.310211,0.312417,83.719109,5593800.00,38.402248,33.704594,0.000000,0.000000,0.000001,0.000001,0.000001,0.000001,0.000001,0,0,0,0
271783,1616,0,195,3.859356,-0.158621,-9.857621,-171.310211,0.312417,83.720848,5593800.00,38.402248,33.704594,0.000000,0.000000,0.000001,0.000001,0.000001,0.000001,0.000001,0,0,0,0
271941,1617,0,201,4.601433,-2.921671,-9.857682,-171.310211,0.312417,83.720848,5594600.00,38.402248,33.704594,0.000000,0.000000,0.000001,0.000001,0.000001,0.000001,0.000001,0,0,0,0
272107,1618,0,201,4.601433,-2.921671,-9.857682,-171.310211,0.312418,83.713417,5594600.00,38.402248,33.704594,0.000000,0.000000,0.000001,0.000001,0.000001,0.000001,0.000001,0,0,0,0
272280,1619,0,215,4.358647,1.250601,-9.857987,-171.310211,0.312418,83.717583,5594600.00,38.402248,33.704594,0.000000,0.000000,0.000000,0.000000,0.000000,0.000000,0.000000,0,0,0,0
272452,1620,0,255,4.948524,2.808947,-9.857637,-171.310211,0.312419,83.710320,5594600.00,38.402248,33.704594,0.000000,0.000000,0.000000,0.000000,0.000000,0.000000,0.000000,0,0,0,0
272625,1621,0,73,3.896928,-5.031560,-9.857990,-171.310211,0.312419,83.705490,5594600.00,38.402248,33.704594,0.000000,0.000000,0.000000,0.000000,0.000000,0.000000,0.000000,0,0,0,0
272784,1622,0,153,3.742472,-0.735508,-9.857595,-171.310211,0.312419,83.705490,5594600.00,38.402248,33.704594,0.000000,0.000000,0.000000,0.000000,0.000000,0.000000,0.000000,0,0,0,0
272948,1623,0,153,3.742472,-0.735508,-9.857595,-171.310211,0.312420,83.702187,5594700.00,38.402248,33.704594,0.000000,0.000000,0.000001,0.000001,0.000001,0.000001,0.000001,0,0,0,0
273295,1625,0,247,4.069731,-2.153921,-9.857470,-171.310211,0.312421,83.697556,5594700.00,38.402248,33.704594,0.000000,0.000000,0.000001,0.000001,0.000001,0.000001,0.000001,0,0,0,0
273467,1626,0,29,4.303264,2.794424,-9.857238,-171.310211,0.312422,83.696152,5594700.00,38.402248,33.704594,0.000000,0.000000,0.000000,0.000000,0.000000,0.000000,0.000000,0,0,0,0
273633,1627,0,45,4.636680,1.254883,-9.857452,-171.310211,0.312422,83.692909,5594700.00,38.402248,33.704594,0.000000,0.000000,0.000001,0.000000,0.000000,0.000000,0.000000,0,0,0,0
273790,1628,0,45,4.636680,1.254883,-9.857452,-171.310211,0.312422,83.692909,5594700.00,38.402248,33.704594,0.000000,0.000000,0.000001,0.000001,0.000001,0.000001,0.000001,0,0,0,0
273963,1629,0,35,4.669142,0.867275,-9.858033,-171.310211,0.312423,83.687103,5594800.00,38.402248,33.704594,0.000000,0.000000,0.000000,0.000000,0.000000,0.000000,0.000000,0,0,0,0
274136,1630,0,215,4.154799,-4.793694,-9.857751,-171.310211,0.312423,83.683624,5594800.00,38.402248,33.704594,0.000000,0.000000,0.000000,0.000000,0.000000,0.000000,0.000000,0,0,0,0
274308,1631,0,1,4.392632,3.839743,-9.857944,-171.310211,0.312424,83.679962,5594800.00,38.402248,33.704594,0.000000,0.000000,0.000000,0.000000,0.000000,0.000000,0.000000,0,0,0,0
274482,1632,0,253,3.694198,-2.675284,-9.857774,-171.310211,0.312424,83.678505,5594800.00,38.402248,33.704594,0.000000,0.000000,0.000001,0.000001,0.000001,0.000001,0.000001,0,0,0,0
274805,1634,0,19,4.058966,-1.315384,-9.857546,-171.310211,0.312188,83.665161,5594800.00,38.402248,33.704594,0.000000,0.000000,0.000000,0.000000,0.000000,0.000000,0.000000,0,0,0,0
274978,1635,0,155,3.737129,0.836951,-9.858147,-171.310211,0.312006,83.661133,5594900.00,38.402248,33.704594,0.000000,0.000000,0.000000,0.000000,0.000000,0.000000,0.000000,0,0,0,0
275151,1636,0,231,4.044431,-0.464621,-9.858210,-171.310211,0.311982,83.658180,5594900.00,38.402248,33.704594,0.000000,0.000000,0.000000,0.000000,0.000000,0.000000,0.000000,0,0,0,0
275323,1637,0,241,4.269481,2.512367,-9.858043,-171.310211,0.311768,83.645493,5594900.00,38.402248,33.704594,0.000000,0.000000,0.000000,0.000000,0.000000,0.000000,0.000000,0,0,0,0
275497,1638,0,95,3.404667,-2.999947,-9.858314,-171.310211,0.311481,83.639282,5594900.00,38.402248,33.704594,0.000000,0.000000,0.000000,0.000000,0.000000,0.000000,0.000000,0,0,0,0
275655,1639,0,237,3.976942,1.200376,-9.857732,-171.310211,0.311481,83.639282,5594900.00,38.402248,33.704594,0.000000,0.000000,0.000000,0.000000,0.000000,0.000000,0.000000,0,0,0,0
275819,1640,0,237,3.976942,1.200376,-9.857732,-171.310211,0.311191,83.635063,5594900.00,38.402248,33.704594,0.000000,0.000000,0.000000,0.000000,0.000000,0.000000,0.000000,0,0,0,0
275993,1641,0,47,3.961660,-0.016593,-9.858378,-171.310211,0.311064,83.631721,5595000.00,38.402248,33.704594,0.000000,0.000000,0.000000,0.000000,0.000000,0.000000,0.000000,0,0,0,0
276166,1642,0,19,4.086059,0.524346,-9.858214,-171.310211,0.310828,83.627174,5595000.00,38.402248,33.704594,0.000000,0.000000,0.000000,0.000000,0.000000,0.000000,0.000000,0,0,0,0
276338,1643,0,41,4.016017,1.123375,-9.858604,-171.310211,0.310509,83.624100,5595000.00,38.402248,33.704594,0.000000,0.000000,0.000000,0.000000,0.000000,0.000000,0.000000,0,0,0,0
276512,1644,0,17,4.272246,-2.441781,-9.859056,-171.310211,0.310152,83.624245,5595000.00,38.402248,33.704594,0.000000,0.000000,0.000001,0.000001,0.000001,0.000001,0.000001,0,0,0,0
276834,1646,0,75,4.060300,2.032751,-9.858437,-171.310211,0.308675,83.624382,5595000.00,38.402248,33.704594,0.000000,0.000000,0.000000,0.000000,0.000000,0.000000,0.000000,0,0,0,0
277008,1647,0,125,4.096599,-0.201919,-9.858156,-171.310211,0.308270,83.624481,5595100.00,38.402248,33.704594,0.000000,0.000000,0.000000,0.000000,0.000000,0.000000,0.000000,0,0,0,0
277181,1648,0,35,3.979854,-0.132360,-9.858438,-171.310211,0.308407,83.634010,5595100.00,38.402248,33.704594,0.000000,0.000000,0.000000,0.000000,0.000000,0.000000,0.000000,0,0,0,0
277353,1649,0,33,4.126851,1.685248,-9.858244,-171.310211,0.308210,83.642815,5595100.00,38.402248,33.704594,0.000000,0.000000,0.000001,0.000001,0.000001,0.000001,0.000001,0,0,0,0
277527,1650,0,115,4.052350,-1.032751,-9.859117,-171.310211,0.308356,83.659698,5595100.00,38.402248,33.704594,0.000000,0.000000,0.000001,0.000001,0.000001,0.000001,0.000001,0,0,0,0
277850,1652,0,225,3.629013,-1.705082,-9.859282,-171.310211,0.308504,83.671829,5595100.00,38.402248,33.704594,0.000000,0.000000,0.000001,0.000001,0.000001,0.000001,0.000001,0,0,0,0
278022,1653,0,107,4.334770,1.692054,-9.859403,-171.310211,0.308645,83.687294,5595100.00,38.402248,33.704594,0.000000,0.000000,0.000000,0.000000,0.000000,0.000000,0.000000,0,0,0,0
278196,1654,0,113,3.466999,-4.179010,-9.859352,-171.310211,0.308774,83.708992,5595100.00,38.402248,33.704594,0.000000,0.000000,0.000000,0.000000,0.000000,0.000000,0.000000,0,0,0,0
278368,1655,0,149,4.151601,4.232927,-9.859222,-171.310211,0.308904,83.711098,5595100.00,38.402248,33.704594,0.000000,0.000000,0.000001,0.000001,0.000001,0.000001,0.000001,0,0,0,0
278527,1656,0,177,3.845855,-0.183689,-9.859056,-171.310211,0.308904,83.711098,5595100.00,38.402248,33.704594,0.000000,0.000000,0.000001,0.000001,0.000001,0.000001,0.000001,0,0,0,0
278863,1658,0,185,4.310877,0.372579,-9.858981,-171.310211,0.309153,83.722641,5595100.00,38.402248,33.704594,0.000000,0.000000,0.000000,0.000000,0.000000,0.000000,0.000000,0,0,0,0
279037,1659,0,131,3.732467,-1.756497,-9.858873,-171.310211,0.309266,83.709244,5595100.00,38.402248,33.704594,0.000000,0.000000,0.000000,0.000000,0.000000,0.000000,0.000000,0,0,0,0
279210,1660,0,153,4.420887,-2.819093,-9.859444,-171.310211,0.309374,83.713867,5595100.00,38.402248,33.704594,0.000000,0.000000,0.000001,0.000001,0.000001,0.000001,0.000001,0,0,0,0
279382,1661,0,175,4.389944,4.083105,-9.859794,-171.310211,0.309477,83.711250,5595100.00,38.402248,33.704594,0.000000,0.000000,0.000000,0.000000,0.000000,0.000000,0.000000,0,0,0,0
279546,1662,0,73,4.043898,-1.425271,-9.860442,-171.310211,0.309254,83.711250,5595100.00,38.402248,33.704594,0.000000,0.000000,0.000000,0.000000,0.000000,0.000000,0.000000,0,0,0,0
279878,1664,0,209,4.138378,1.066384,-9.860102,-171.310211,0.308532,83.704285,5595100.00,38.402248,33.704594,0.000000,0.000000,0.000001,0.000001,0.000001,0.000001,0.000001,0,0,0,0
280051,1665,0,211,4.243619,0.108911,-9.859857,-171.310211,0.308026,83.695168,5595100.00,38.402248,33.704594,0.000000,0.000000,0.000001,0.000001,0.000001,0.000001,0.000001,0,0,0,0
280225,1666,0,41,4.010166,-1.710481,-9.860592,-171.310211,0.308217,83.719818,5595100.00,38.402248,33.704594,0.000000,0.000000,0.000001,0.000001,0.000001,0.000001,0.000001,0,0,0,0
280556,1668,0,181,4.184401,5.882915,-9.859574,-171.310211,0.306906,83.680946,5595100.00,38.402248,33.704594,0.000000,0.000000,0.000001,0.000001,0.000001,0.000001,0.000001,0,0,0,0
280720,1669,0,181,4.184401,5.882915,-9.859574,-171.310211,0.307188,83.678017,5595100.00,38.402248,33.704594,0.000000,0.000000,0.000001,0.000001,0.000001,0.000001,0.000001,0,0,0,0
280893,1670,0,223,4.303517,-5.206758,-9.860013,-171.310211,0.307425,83.679733,5595100.00,38.402248,33.704594,0.000000,0.000000,0.000000,0.000000,0.000000,0.000000,0.000000,0,0,0,0
281065,1671,0,199,3.902543,0.995018,-9.859900,-171.310211,0.307661,83.688606,5595100.00,38.402248,33.704594,0.000000,0.000000,0.000001,0.000001,0.000001,0.000001,0.000001,0,0,0,0
281239,1672,0,237,3.998959,-3.408727,-9.860263,-171.310211,0.307895,83.697578,5595100.00,38.402248,33.704594,0.000000,0.000000,0.000001,0.000001,0.000001,0.000001,0.000001,0,0,0,0
281734,1675,0,11,4.692011,3.411454,-9.859804,-171.310211,0.308310,83.717331,5595100.00,38.402248,33.704594,0.000000,0.000000,0.000000,0.000000,0.000000,0.000000,0.000000,0,0,0,0
281907,1676,0,235,4.487119,-3.649997,-9.859506,-171.310211,0.308503,83.725410,5595100.00,38.402248,33.704594,0.000000,0.000000,0.000000,0.000000,0.000000,0.000000,0.000000,0,0,0,0
282080,1677,0,193,3.829580,1.388660,-9.859188,-171.310211,0.308684,83.731018,5595100.00,38.402248,33.704594,0.000000,0.000000,0.000001,0.000001,0.000001,0.000001,0.000001,0,0,0,0
282253,1678,0,193,4.366670,0.482264,-9.859593,-171.310211,0.308853,83.734962,5595100.00,38.402248,33.704594,0.000000,0.000000,0.000000,0.000000,0.000000,0.000000,0.000000,0,0,0,0
